Date,Source External ID,Machine ID,Asset ID,Machine Name,Machine OEM,Machine Model,Machine Type,Org Name,Site Name,Site/Org Timezone,Group Name,Source Type,Association Start,Association End,Battery Level,Battery Voltage,External Voltage,Sensor Model,Firmware Version,Config Version,Device Mode,Primary Activity,Primary Fuel,Primary GPS,Source Status,Battery Status,Signal Status,Lat,Long,Latest Location Date,Latest Location Time,Latest Hours Date,Latest Hours Time,Last Data Date,Last Data Time
2023-11-07,350612072711623,f937ac4b-0840-4bf4-9542-4e1bb25d97de,MP13H0822,Tipper,TATA,,TIPPER_TRUCK," S & S stone crusher",default,Asia/Calcutta,unallocated,TELTONIKA,2023-07-06,,N/A,4082,18330,,,,,f,f,t,Unresponsive,GOOD,Good,23.359753,75.499886,2023-11-06,12:01:03,2023-11-06,23:37:31,2023-10-17,03:46:22
2023-11-07,862315060803342,f937ac4b-0840-4bf4-9542-4e1bb25d97de,MP13H0822,Tipper,TATA,,TIPPER_TRUCK," S & S stone crusher",default,Asia/Calcutta,unallocated,MAX ACW,2023-07-06,,99.6,3057,0,CELLULAR,V1.8.48-A,Normal operation,Normal operation,t,f,f,Responsive,GOOD,N/A,23.359753,75.499886,2023-11-06,12:01:03,2023-11-06,23:37:31,2023-11-06,23:37:31
2023-11-07,357544379639129,faa17bb8-d2a0-42a4-bc66-55069402f05d,MP13H0826,Tipper,TATA,,TIPPER_TRUCK," S & S stone crusher",default,Asia/Calcutta,unallocated,TELTONIKA,2023-07-06,,N/A,0,23946,FMT100,03.27.07.Rev.00,20220601_source_accel.cfg,,f,f,t,Responsive,GOOD,Good,23.359547,75.49979,2023-11-06,23:59:43,2023-11-06,19:05:34,2023-11-06,23:59:43
2023-11-07,862315060773123,faa17bb8-d2a0-42a4-bc66-55069402f05d,MP13H0826,Tipper,TATA,,TIPPER_TRUCK," S & S stone crusher",default,Asia/Calcutta,unallocated,MAX ACW,2023-07-06,,99.6,3066,0,CELLULAR,V1.8.48-A,Normal operation,Normal operation,t,f,f,Responsive,GOOD,N/A,23.359547,75.49979,2023-11-06,23:59:43,2023-11-06,19:05:34,2023-11-06,19:05:34
2023-11-07,357544370205219,20ec2e56-c0a6-4e95-8bef-8b7ed0081083,40340,HITACHI  ZX350LC-7-MN  2022B,HITACHI,ZX350LC-7-MN,EXCAVATOR,GROBELCO BVBA,default,Europe/Brussels,unallocated,TELTONIKA,2023-09-07,,N/A,0,0,FMT100,03.27.13.Rev.03,,,t,f,t,Unresponsive,DISCONNECTED,Unknown,,,,,,,,
2023-11-07,357544370708816,be53da79-777f-4223-adda-dc3bcf5b0741,40341,HITACHI  ZX210LC-7-MN  2022B,HITACHI,ZX210LC-7-MN,EXCAVATOR,GROBELCO BVBA,default,Europe/Brussels,unallocated,TELTONIKA,2023-09-11,,N/A,0,0,FMT100,03.25.18.Rev.08,,,t,f,t,Unresponsive,DISCONNECTED,Unknown,,,,,,,,
2023-11-07,357544370751485,cb6b82d9-ce90-44df-bbb3-753dd5931250,39656,KUBOTA  KX080-4 a2 GL  2022C,KUBOTA,KX080-4 a2 GL,EXCAVATOR,ANTOINE_SPRL,default,Europe/Brussels,unallocated,TELTONIKA,2023-04-25,,N/A,3981,12332,FMT100,03.27.13.Rev.03,20210126122900_always_on_calibrate_once.cfg,,t,f,t,Responsive,GOOD,Low,50.586558,5.450452,2023-11-06,23:59:29,2023-11-06,23:50:28,2023-11-06,23:59:29
2023-11-07,350424060060769,d1890885-709a-48c5-81a7-095d5134ed71,38510,HITACHI  ZX135US-7-MN  2022B,HITACHI,ZX135 US-7-MN ,EXCAVATOR,ANTOINE_SPRL,default,Europe/Brussels,unallocated,TELTONIKA,2022-07-13,,N/A,0,25949,FMT100,03.27.13.Rev.03,FMT100_STDCFG_05042023_v1.2.cfg,,t,f,t,Responsive,GOOD,Good,50.640905,5.582672,2023-11-06,23:59:56,2023-11-06,23:49:25,2023-11-06,23:59:56
2023-11-07,867198057242947,b8bdd3fb-6840-4232-9d1c-fe97cae8fb52,3147499,JCB Stromaggregat Q45,JCB,Q45,GENERATOR,Hahn Transporte UG - 1043429,default,Europe/Berlin,unallocated,MAX ACW,2022-11-11,,97.2,2941,0,CELLULAR,V1.8.48-A,Normal operation,Normal operation,t,f,t,Responsive,GOOD,N/A,51.34547,11.993591,2023-11-06,12:00:36,2023-11-06,21:59:46,2023-11-06,21:59:46
2023-11-07,357544370167609,0f5c4486-290b-49f9-a71b-81b0b4a6ebcf,WNCD2402KPAL01726,Wacker Neuson DV90 Raddumper,WACKERNEUSON,DV90,DUMP_TRUCK_DUMPER,Krebs & Suhr GmbH & Co. KG - 370178,default,Europe/Berlin,unallocated,TELTONIKA,2022-11-14,,N/A,0,12536,FMT100,03.27.13.Rev.03,FMT100_STDCFG_20042023_v1.3.cfg,,t,f,t,Responsive,GOOD,Good,53.94942,9.738905,2023-11-06,23:59:55,2023-11-06,23:51:23,2023-11-06,23:59:55
2023-11-07,357073299991014,15637d06-be80-42b7-becd-c4689c96e1dc,AG05789,Wacker Neuson 1404 Minibagger,WACKERNEUSON,1404,EXCAVATOR,Krebs & Suhr GmbH & Co. KG - 370178,default,Europe/Berlin,unallocated,TELTONIKA,2023-03-16,,N/A,0,12419,FMT100,03.27.13.Rev.03,FMT100_STDCFG_05042023_v1.2.cfg,,t,f,t,Responsive,GOOD,Good,54.04999,9.978658,2023-11-06,23:59:53,2023-11-06,23:50:22,2023-11-06,23:59:53
2023-11-07,350424060020912,22e50537-df47-4d74-b8d0-2e59c0fbd58b,AG02955,Wacker Neuson Minibagger 1404 ,WACKERNEUSON,1404,EXCAVATOR,Krebs & Suhr GmbH & Co. KG - 370178,default,Europe/Berlin,unallocated,TELTONIKA,2023-01-02,,N/A,0,0,FMT100,03.27.13.Rev.03,FMT100_STDCFG_20042023_v1.3.cfg,,t,f,t,Responsive,DISCONNECTED,Good,54.085155,9.662132,2023-11-06,13:40:26,2023-11-06,13:34:00,2023-11-06,13:40:26
2023-11-07,357544370206381,45b2367d-0229-427d-9670-59b4cd3b88d2,WKA0F2202P9011066,Kaeser M125 compressor,KAESER,M125,COMPRESSOR,Krebs & Suhr GmbH & Co. KG - 370178,default,Europe/Berlin,unallocated,TELTONIKA,2023-03-16,,N/A,0,12313,FMT100,03.27.13.Rev.03,FMT100_STDCFG_05042023_v1.2.cfg,,t,f,t,Responsive,GOOD,Good,54.049605,9.979025,2023-11-06,23:59:32,2023-11-06,23:51:01,2023-11-06,23:59:32
2023-11-07,357544371060720,4de3cc09-2e0d-4a44-8f3a-b7c020d03542,AG05851,Neuson 1404 MINIBAGGER,WACKERNEUSON,1404,EXCAVATOR,Krebs & Suhr GmbH & Co. KG - 370178,default,Europe/Berlin,unallocated,TELTONIKA,2022-11-21,,N/A,0,12716,FMT100,03.27.13.Rev.03,FMT100_STDCFG_05042023_v1.2.cfg,,t,f,t,Responsive,GOOD,Good,54.099858,9.993863,2023-11-06,23:59:33,2023-11-06,23:52:02,2023-11-06,23:59:33
2023-11-07,350424060026125,a110513a-10e4-49fa-b409-2250bd153b53,3011534,Wacker Neuson Radlader WL 25 ,WACKERNEUSON,WL 25 ,WHEELED_LOADER,Krebs & Suhr GmbH & Co. KG - 370178,default,Europe/Berlin,unallocated,TELTONIKA,2023-01-02,,N/A,0,12492,FMT100,03.27.13.Rev.03,FMT100_STDCFG_20042023_v1.3.cfg,,t,f,t,Responsive,GOOD,Low,54.053893,10.014557,2023-11-06,23:58:36,2023-11-06,23:41:04,2023-11-06,23:58:36
2023-11-07,357544370218626,d8e7b78a-1764-4eff-a859-9814f1680838,LJK00692,Caterpillar 301.4 C,CATERPILLAR,301.4 C,EXCAVATOR,Krebs & Suhr GmbH & Co. KG - 370178,default,Europe/Berlin,unallocated,TELTONIKA,2023-04-05,,N/A,0,0,FMT100,03.27.13.Rev.03,FMT100_STDCFG_20042023_v1.3.cfg,,t,f,t,Responsive,DISCONNECTED,Good,54.072932,9.98783,2023-11-06,14:01:24,2023-11-06,13:52:19,2040-01-01,23:22:04
2023-11-07,4CBC98314D977CA3,0fe8b080-c9e2-4919-a3be-93f4811948e9,,LS 70,,CAT 972M,WHEELED_LOADER,Northstone Materials Ltd,default,Europe/London,unallocated,MAX ALE,2020-02-11,,0.8,2319,0,LORA,V1.8.32-B,Normal operation,Normal operation,t,f,f,Unresponsive,DEAD,N/A,55.074574,-6.753819,2021-08-01,20:12:54,2021-08-10,17:22:36,2021-08-10,17:22:49
2023-11-07,4CBC9831932C7C6C,30be7472-204e-4e85-9ec2-529000ea45a7,,M11,,,CRUSHER,Northstone Materials Ltd,default,Europe/London,unallocated,MAX ALE,2019-05-01,,7.5,2321,0,LORA,V1.3.17-A,Normal operation,Normal operation,t,f,f,Unresponsive,DEAD,N/A,55.074944,-6.757126,2020-01-17,13:18:48,2020-01-18,13:27:12,,
2023-11-07,4CBC9831FA65C7C1,40bfeab0-f3f0-4fe6-a8d6-3149a98c25bc,,VUI 2114 (TB),,,OTHER,Northstone Materials Ltd,default,Europe/London,unallocated,MAX ALE,2020-02-11,,99.6,3043,0,LORA,V1.8.32-B,Normal operation,Normal operation,t,f,f,Unresponsive,GOOD,N/A,55.075451,-6.750255,2020-07-20,15:21:05,2020-07-21,15:04:47,2020-06-16,09:59:47.418
2023-11-07,4CBC98311BB2473A,93f162b4-3735-41df-b211-1f755b6f16c9,,DT20,VOLVO,A25D,DUMP_TRUCK,Northstone Materials Ltd,default,Europe/London,unallocated,MAX ALE,2019-04-30,,0.4,2159,0,LORA,V1.3.17-B,Normal operation,Normal operation,t,f,f,Unresponsive,DEAD,N/A,55.075066,-6.754521,2020-03-10,22:50:03,2020-03-15,20:22:37,2020-03-15,20:22:51.308
2023-11-07,4CBC98318650BAC3,c523a616-1656-4a96-a1d1-e1a494425f70,,LS 46,,,WHEELED_LOADER,Northstone Materials Ltd,default,Europe/London,unallocated,MAX ALE,2020-02-11,,3.1,2412,0,LORA,V1.8.32-B,Normal operation,Normal operation,t,f,f,Unresponsive,DEAD,N/A,55.071053,-6.756044,2021-11-19,14:14:52,2021-11-24,11:39:16,2021-11-24,11:39:32
2023-11-07,4CBC98311255F976,ccd4e2c3-c26d-42d6-ab9e-487d19386ecc,,F44,,,OTHER,Northstone Materials Ltd,default,Europe/London,unallocated,MAX ALE,2019-05-22,,5.5,2285,0,LORA,V1.3.17-B,Normal operation,Normal operation,t,f,f,Unresponsive,DEAD,N/A,55.07653,-6.752766,2020-02-17,00:08:18,2020-02-18,00:16:55,2020-02-18,00:17:11.144
2023-11-07,4CBC98315F5C34EE,d9b8a263-baa4-4396-8867-c6adb09f1c67,,LS 45,,,WHEELED_LOADER,Northstone Materials Ltd,default,Europe/London,unallocated,MAX ALE,2020-02-11,,99.2,2929,0,LORA,V1.8.32-B,Factory OTA,Factory OTA,t,f,f,Unresponsive,GOOD,N/A,55.074867,-6.75334,2021-02-18,13:28:03,2021-02-18,15:50:37,2022-09-14,13:37:14
2023-11-07,350544506418725,077d93ec-0f4b-4b60-bd60-e228ddbb8b24,VCEC220EV00324070 // WI 1350,VOLVO EC220E  Kettenbagger,VOLVO,EC220E,EXCAVATOR,KNETTENBRECH + GURDULIC Recycling GmbH & Co. KG – 1042817,default,Europe/Berlin,unallocated,TELTONIKA,2023-09-25,,N/A,0,0,FMT100,,GCF307_202208120816.cfg,,t,f,t,Unresponsive,DISCONNECTED,Unknown,,,,,,,,
2023-11-07,350424063053126,5d61f8da-0a61-49ea-b0c1-c16d18f5c617,38090,KUBOTA  U17-3N VHGL HI  2022A,KUBOTA," U17-3N VHGL HI",EXCAVATOR,VAN HEKKEN NV,default,Europe/Brussels,unallocated,TELTONIKA,2022-09-26,,N/A,0,12063,FMT100,03.27.10.Rev.02,FMT100_STDCFG_05042023_v1.2.cfg,,t,f,t,Responsive,GOOD,Good,51.242705,4.439065,2023-11-06,23:59:29,2023-11-06,23:55:29,2023-11-06,23:59:29
2023-11-07,357544372629127,15ea2bb3-aa1e-4170-a357-a5892e74833e,101587491007,Bomag BW213 D-5 Wlaze,BOMAG,BW213 D-5,ROLLER,Linkamp GmbH - 1019244,default,Europe/Berlin,unallocated,TELTONIKA,2023-01-24,,N/A,0,12218,FMT100,03.27.13.Rev.03,FMT100_STDCFG_05042023_v1.2.cfg,,t,f,t,Responsive,GOOD,Good,50.793985,8.015,2023-11-06,23:59:36,2023-11-06,23:53:35,2023-11-06,23:59:36
2023-11-07,352625696637378,1e6755a8-8b79-4ec3-a0d3-d53554a4a43f,LJH06002,Caterpillar 301.7 Minibagger,CATERPILLAR,301.7D,EXCAVATOR,Linkamp GmbH - 1019244,default,Europe/Berlin,unallocated,TELTONIKA,2023-06-30,,N/A,3953,12391,FMT100,03.27.13.Rev.03,20210126122900_always_on_calibrate_once.cfg,,t,f,t,Responsive,GOOD,Good,51.429142,7.161555,2023-11-06,23:59:46,2023-11-06,23:56:15,2023-11-06,23:59:46
2023-11-07,352625696852530,34978269-dbc0-448a-bf13-b267caf6593e,A101009889 // H10,Skyjack SJ3226 Scherenhebebühne,SKYJACK,SJ3226,SCISSOR_LIFT,Linkamp GmbH - 1019244,default,Europe/Berlin,unallocated,TELTONIKA,2023-10-07,,N/A,0,11993,FMT100,03.27.13.Rev.03,FMT100_STDCFG_20042023_v1.3.cfg,,t,f,t,Responsive,GOOD,Good,51.571775,8.321958,2023-11-06,23:59:38,2023-11-06,23:54:07,2023-11-06,23:59:38
2023-11-07,352625697799433,349f0ed5-2fc6-4c74-a92c-2c9317c451d0,ZF1F50MD2D1001237,Merlo Teleskoplader TF30.9-115 ,MERLO,TF30.9-115,TELEHANDLER,Linkamp GmbH - 1019244,default,Europe/Berlin,unallocated,TELTONIKA,2023-04-26,,N/A,0,12757,FMT100,03.27.13.Rev.03,FMT100_STDCFG_20042023_v1.3.cfg,,t,f,t,Responsive,GOOD,Good,51.657255,7.095752,2023-11-06,23:59:45,2023-11-06,23:53:15,2023-11-06,23:59:45
2023-11-07,357544370693968,34d1276e-8c7d-4f7d-9190-bc4997c3cce6,A101009795// H9,Skyjack SJ3226 Scherenhebebühne,SKYJACK,SJ3226,SCISSOR_LIFT,Linkamp GmbH - 1019244,default,Europe/Berlin,unallocated,TELTONIKA,2023-10-07,,N/A,0,11901,FMT100,03.27.13.Rev.03,FMT100_STDCFG_20042023_v1.3.cfg,,t,f,t,Responsive,GOOD,Good,51.571585,8.322098,2023-11-06,23:59:39,2023-11-06,23:57:10,2023-11-06,23:59:39
2023-11-07,357544370750941,44c46dd0-54f6-4d57-862a-24be0cceae06,G1500X21102,Tobroco Giant G1500 X-TRA Radlader,TOBROCO_GIANT,G1500 X-TRA ,WHEELED_LOADER,Linkamp GmbH - 1019244,default,Europe/Berlin,unallocated,TELTONIKA,2023-05-23,,N/A,4010,12668,FMT100,03.27.13.Rev.03,20210126122900_always_on_calibrate_once.cfg,,t,f,t,Responsive,GOOD,Good,50.892525,6.997317,2023-11-06,23:59:49,2023-11-06,23:56:18,2023-11-06,23:59:49
2023-11-07,357544370174530,45b4ec2f-ecbd-4a99-8b17-89ffb1d6e691,PID00123JDGIA8538,Powerscreen Warrior 1800 ,POWERSCREEN,W1800,SCREENER,Linkamp GmbH - 1019244,default,Europe/Berlin,unallocated,TELTONIKA,2023-04-29,,N/A,0,13083,FMT100,03.27.13.Rev.03,FMT100_STDCFG_20042023_v1.3.cfg,,t,f,t,Responsive,GOOD,Good,52.561947,13.318327,2023-11-06,23:59:49,2023-11-06,23:54:19,2023-11-06,23:59:49
2023-11-07,357544370211985,48d2bd78-cb39-4999-81f8-b942cd01c53f,23-0643-0719,Telestack TC-424X,TELESTACK,TC-424X,CRUSHER,Linkamp GmbH - 1019244,default,Europe/Berlin,unallocated,TELTONIKA,2023-01-17,,N/A,0,12142,FMT100,03.27.13.Rev.03,FMT100_STDCFG_05042023_v1.2.cfg,,t,f,t,Responsive,GOOD,Good,51.886363,8.354058,2023-11-06,23:59:41,2023-11-06,23:49:41,2023-11-06,23:59:41
2023-11-07,357544370753283,4c436690-c2ba-48f6-876e-54a79f668ac3,42158349,SBM Remax 300 Brecher,SBM,R300,CRUSHER,Linkamp GmbH - 1019244,default,Europe/Berlin,unallocated,TELTONIKA,2023-05-30,,N/A,0,10957,FMT100,03.27.13.Rev.03,FMT100_STDCFG_20042023_v1.3.cfg,,t,f,t,Responsive,GOOD,Low,51.571968,8.32409,2023-10-11,23:37:20,2023-10-11,23:42:21,2023-11-06,23:59:35
2023-11-07,357544370203008,5058ea9d-bba3-4083-b386-bbf88c6afc8f,LJM02058,Cat 300.9D,CATERPILLAR,300.9D ,EXCAVATOR,Linkamp GmbH - 1019244,default,Europe/Berlin,unallocated,TELTONIKA,2023-03-06,,N/A,0,12740,FMT100,03.27.13.Rev.03,FMT100_STDCFG_20042023_v1.3.cfg,,t,f,t,Responsive,GOOD,Low,53.170883,8.142142,2023-11-06,23:59:51,2023-11-06,23:53:20,2023-11-06,23:59:51
2023-11-07,357544370714764,556d8b5f-07a5-42be-82fb-56088e67a3f7,PID00123TDGL52970,Terex W1800,POWERSCREEN,W1800,CRUSHER,Linkamp GmbH - 1019244,default,Europe/Berlin,unallocated,TELTONIKA,2023-01-23,,N/A,0,13238,FMT100,03.27.13.Rev.03,FMT100_STDCFG_05042023_v1.2.cfg,,t,f,t,Responsive,GOOD,Low,50.874533,13.925728,2023-11-06,23:59:45,2023-11-06,23:47:13,2023-11-06,23:59:45
2023-11-07,357544371057775,61eed131-5bc6-4ec7-a321-d4d96630d083,125101046,Takeuchi TB250 Bagger,TAKEUCHI,TB250-2 ,EXCAVATOR,Linkamp GmbH - 1019244,default,Europe/Berlin,unallocated,TELTONIKA,2023-01-23,,N/A,0,12587,FMT100,03.27.13.Rev.03,FMT100_STDCFG_05042023_v1.2.cfg,,t,f,t,Responsive,GOOD,Low,51.379578,7.451915,2023-11-06,23:59:38,2023-11-06,23:54:07,2023-11-06,23:59:38
2023-11-07,357544372003687,62df1c96-c154-4cba-972f-bbd9cf2d83fb,G1500X20063,Tobroco Giant G1500 X-TRA Radlader,TOBROCO_GIANT,G1500 X-TRA,WHEELED_LOADER,Linkamp GmbH - 1019244,default,Europe/Berlin,unallocated,TELTONIKA,2023-04-05,,N/A,3982,12493,FMT100,03.27.13.Rev.03,20210126122900_always_on_calibrate_once.cfg,,t,f,t,Responsive,GOOD,Good,51.572107,8.322952,2023-11-06,23:59:37,2023-11-06,23:57:37,2023-11-06,23:59:37
2023-11-07,357544370694156,665c370c-2f30-4f6c-be2a-37654ab9aa0e,C3244088,Merlo 40.30 Telehandler,MERLO,40.30 MCSS Rotor ,TELEHANDLER,Linkamp GmbH - 1019244,default,Europe/Berlin,unallocated,TELTONIKA,2023-03-07,,N/A,0,0,FMT100,03.27.13.Rev.03,FMT100_STDCFG_05042023_v1.2.cfg,,t,f,t,Unresponsive,DISCONNECTED,Good,51.593592,8.304228,2023-10-30,11:21:47,2023-10-30,11:20:17,2023-10-30,11:21:47
2023-11-07,357544370753234,6728f22e-4530-4b06-a6fd-94edf98ffa55,A101009781 // H11,Skyjack SJ3226 Scherenhebebühne,SKYJACK,SJ3226,SCISSOR_LIFT,Linkamp GmbH - 1019244,default,Europe/Berlin,unallocated,TELTONIKA,2023-10-30,,N/A,0,12302,FMT100,03.27.13.Rev.03,FMT100_STDCFG_20042023_v1.3.cfg,,t,f,t,Responsive,GOOD,Good,50.794758,8.014383,2023-11-06,23:59:27,2023-11-06,23:51:27,2023-11-06,23:59:27
2023-11-07,357544370693786,6924a222-6e28-4e7e-989c-6ae414f72caa,211004066,Takeuchi TB216R,TAKEUCHI,TB210R Hybrid ,WHEELED_LOADER,Linkamp GmbH - 1019244,default,Europe/Berlin,unallocated,TELTONIKA,2023-03-01,,N/A,0,0,FMT100,03.27.13.Rev.03,FMT100_STDCFG_05042023_v1.2.cfg,,t,f,t,Unresponsive,DISCONNECTED,Low,51.57144,8.323563,2023-07-01,14:42:55,2023-07-01,14:41:25,2023-07-01,14:42:55
2023-11-07,352625696621596,711ed563-60c4-4301-a5e9-c18cdfecee0e,281572,Volvo ECR 58 D Bagger,VOLVO,ECR 58 D,EXCAVATOR,Linkamp GmbH - 1019244,default,Europe/Berlin,unallocated,TELTONIKA,2023-08-29,,N/A,3944,12886,FMT100,03.27.13.Rev.03,20210126122900_always_on_calibrate_once.cfg,,t,f,t,Responsive,GOOD,Good,53.17064,8.142088,2023-11-06,23:59:32,2023-11-06,23:53:32,2023-11-06,23:59:32
2023-11-07,357544374388144,7974350a-e2e5-48c7-a18f-35cd14cd8d9e,348013429,Kramer 350 Radlader,KRAMER,350,WHEELED_LOADER,Linkamp GmbH - 1019244,default,Europe/Berlin,unallocated,TELTONIKA,2023-02-25,,N/A,0,12930,FMT100,03.27.13.Rev.03,FMT100_STDCFG_05042023_v1.2.cfg,,t,f,t,Responsive,GOOD,Good,50.93911,6.974922,2023-11-06,23:59:44,2023-11-06,23:54:13,2023-11-06,23:59:44
2023-11-07,352625699076236,7a6ada60-57a1-472b-b996-cbc4724055fc,42169349,SBM Remax 500,SBM,Remax 500,CRUSHER,Linkamp GmbH - 1019244,default,Europe/Berlin,unallocated,TELTONIKA,2023-01-24,,N/A,0,10755,FMT100,03.27.13.Rev.03,FMT100_STDCFG_05042023_v1.2.cfg,,t,f,t,Responsive,GOOD,Low,51.885422,8.354333,2023-11-06,23:59:30,2023-11-06,23:58:31,2023-11-06,23:59:30
2023-11-07,357544374388821,7ed0504a-0b95-4db2-a874-7047788ba660,LJM01300,Cat 300.9D,CATERPILLAR,300.9D ,EXCAVATOR,Linkamp GmbH - 1019244,default,Europe/Berlin,unallocated,TELTONIKA,2023-03-06,,N/A,0,8756,FMT100,03.27.13.Rev.03,FMT100_STDCFG_05042023_v1.2.cfg,,t,f,t,Unresponsive,GOOD,Good,51.57209,8.322998,2023-09-10,16:18:02,2023-09-10,16:15:31,2023-09-10,16:18:02
2023-11-07,352625697625034,81fee647-377b-49d6-a5a5-b0715dae6fb1,A101009819 // H8,Skyjack SJ3226 Scherenhebebühne,SKYJACK,SJ3226,SCISSOR_LIFT,Linkamp GmbH - 1019244,default,Europe/Berlin,unallocated,TELTONIKA,2023-10-07,,N/A,0,13214,FMT100,03.27.13.Rev.03,FMT100_STDCFG_20042023_v1.3.cfg,,t,f,t,Responsive,GOOD,Good,51.912293,8.768707,2023-11-06,23:59:42,2023-11-06,23:59:42,2023-11-06,23:59:42
2023-11-07,352625698570361,89b54c87-eb44-4524-9f47-8ada99909389,A101007967,Skyjack SJ3226 Hebebühne,SKYJACK,SJ3226,OTHER,Linkamp GmbH - 1019244,default,Europe/Berlin,unallocated,TELTONIKA,2023-04-01,,N/A,0,11772,FMT100,03.27.13.Rev.03,FMT100_STDCFG_20042023_v1.3.cfg,,t,f,t,Responsive,GOOD,Good,51.586152,8.11166,2023-11-06,23:59:54,2023-11-06,23:57:54,2023-11-06,23:59:54
2023-11-07,352625696862737,89ee827a-8be3-4500-80c9-7ef8068eb0d4,LJM01537,Cat 300.9D Minibagger,CATERPILLAR,300.1D,EXCAVATOR,Linkamp GmbH - 1019244,default,Europe/Berlin,unallocated,TELTONIKA,2023-03-29,,N/A,0,12401,FMT100,03.27.13.Rev.03,FMT100_STDCFG_20042023_v1.3.cfg,,t,f,t,Responsive,GOOD,Good,51.571237,8.323475,2023-11-06,23:59:43,2023-11-06,23:56:12,2023-11-06,23:59:43
2023-11-07,357544370755502,8b8bb8ca-d816-4204-ab2b-6de098922967,LJM01988,Cat 300.9D,CATERPILLAR,300.9D,EXCAVATOR,Linkamp GmbH - 1019244,default,Europe/Berlin,unallocated,TELTONIKA,2023-08-29,,N/A,3943,12696,FMT100,03.27.13.Rev.03,20210126122900_always_on_calibrate_once.cfg,,t,f,t,Responsive,GOOD,Good,51.380098,7.45188,2023-11-06,23:59:26,2023-11-06,23:56:56,2023-11-06,23:59:26
2023-11-07,352625698553896,8c96c4a1-9f82-4bbf-8396-ee483b24fffb,42162449,SBM Remax 300 Brecher,SBM,R300,CRUSHER,Linkamp GmbH - 1019244,default,Europe/Berlin,unallocated,TELTONIKA,2023-02-20,,N/A,0,9187,FMT100,03.27.13.Rev.03,FMT100_STDCFG_20042023_v1.3.cfg,,t,f,t,Responsive,GOOD,Low,51.569585,8.186925,2023-10-14,00:34:14,2023-10-14,00:33:14,2023-11-06,18:08:03
2023-11-07,352625696960226,950dbc71-895b-4add-9efd-305f3d268ee8,348015861,Kramer 5035 Radlader,KRAMER,5035,WHEELED_LOADER,Linkamp GmbH - 1019244,default,Europe/Berlin,unallocated,TELTONIKA,2023-05-12,,N/A,4019,12591,FMT100,03.27.13.Rev.03,20210126122900_always_on_calibrate_once.cfg,,t,f,t,Responsive,GOOD,Good,51.429077,7.161493,2023-11-06,23:59:49,2023-11-06,23:57:18,2023-11-06,23:59:49
2023-11-07,357544370212215,964e9a2c-d29d-4768-81bc-f76a1d04e5eb,ZF1RT21A9C6003775,Merlo Roto 45.21,MERLO,Roto 45.21,TELEHANDLER,Linkamp GmbH - 1019244,default,Europe/Berlin,unallocated,TELTONIKA,2023-02-18,,N/A,0,12877,FMT100,03.27.13.Rev.03,FMT100_STDCFG_05042023_v1.2.cfg,,t,f,t,Responsive,GOOD,Good,51.717582,8.752247,2023-11-06,23:59:45,2023-11-06,23:59:45,2023-11-06,23:59:45
2023-11-07,352625697223814,9cf72ba4-2156-43d3-b70b-1464b91f5882,50002692,Skyjack Hebebühne SJ9250 RT,SKYJACK,SJ9250 RT ,OTHER,Linkamp GmbH - 1019244,default,Europe/Berlin,unallocated,TELTONIKA,2023-04-01,,N/A,0,12758,FMT100,03.27.13.Rev.03,FMT100_STDCFG_20042023_v1.3.cfg,,t,f,t,Responsive,GOOD,Good,50.922957,6.979875,2023-11-06,23:59:34,2023-11-06,23:59:04,2023-11-06,23:59:34
2023-11-07,352625698556436,9e2bf9db-d8c4-438f-9afb-c132deaa8d59,LJH02270,Caterpillar 301.7 Minibagger,CATERPILLAR,301.7D,EXCAVATOR,Linkamp GmbH - 1019244,default,Europe/Berlin,unallocated,TELTONIKA,2023-07-01,,N/A,2619,3382,FMT100,03.27.13.Rev.03,20210126122900_always_on_calibrate_once.cfg,,t,f,t,Unresponsive,GOOD,Good,51.55109,8.333842,2023-09-12,01:03:15,2023-09-12,01:03:15,2023-10-07,10:33:00
2023-11-07,357544371196276,a915f7e0-bc29-4d77-8e88-9d6cc7094d41,A202000399,Skyjack Hebebühne SJ9253 RT,SKYJACK,SJ9253 RT,OTHER,Linkamp GmbH - 1019244,default,Europe/Berlin,unallocated,TELTONIKA,2023-04-01,,N/A,0,12655,FMT100,03.27.13.Rev.03,FMT100_STDCFG_20042023_v1.3.cfg,,t,f,t,Responsive,GOOD,Good,51.571375,8.32191,2023-11-06,23:59:57,2023-11-06,23:49:26,2023-11-06,23:59:57
2023-11-07,357544370746584,b081838f-6b8b-410d-8f65-75aef6b73a69,20010788 // Rüttelplatte 2,WEBER CR9 CCD 2.0,WEBER,CR9 CCD 2.0,COMPACTOR,Linkamp GmbH - 1019244,default,Europe/Berlin,unallocated,TELTONIKA,2023-10-07,,N/A,0,12012,FMT100,03.27.13.Rev.03,FMT100_STDCFG_20042023_v1.3.cfg,,t,f,t,Responsive,GOOD,Low,51.571967,8.321773,2023-11-06,23:59:46,2023-11-06,23:52:15,2023-11-06,23:59:46
2023-11-07,352625696956299,b8efb428-1b4c-4c4b-8445-f0c9b236a273,LJH02878,Caterpillar 301.7 Minibagger,CATERPILLAR,301.7D,EXCAVATOR,Linkamp GmbH - 1019244,default,Europe/Berlin,unallocated,TELTONIKA,2023-07-08,,N/A,3963,12782,FMT100,03.27.13.Rev.03,20210126122900_always_on_calibrate_once.cfg,,t,f,t,Responsive,GOOD,Good,51.717543,8.751807,2023-11-06,23:59:34,2023-11-06,23:58:34,2023-11-06,23:59:34
2023-11-07,357544374365449,c4d2ddf6-312a-49db-8619-a331f855e2ad,42152849,SBM Remax 13/12 MaxiPlus,SBM,Remax 13/12 MaxiPlus,CRUSHER,Linkamp GmbH - 1019244,default,Europe/Berlin,unallocated,TELTONIKA,2023-01-24,,N/A,0,14982,FMT100,03.27.13.Rev.03,FMT100_STDCFG_05042023_v1.2.cfg,,t,f,t,Responsive,GOOD,Good,50.92024,6.982282,2023-11-06,23:59:42,2023-11-06,23:58:11,2023-11-06,23:59:42
2023-11-07,357544370750800,ccc6fe74-a297-4a66-9377-06572480d4bc,20100191 // Rüttelplatte 4,WEBER CR 9-II CCD 2.0,WEBER,CR 9-II CCD 2.0,COMPACTOR,Linkamp GmbH - 1019244,default,Europe/Berlin,unallocated,TELTONIKA,2023-10-07,,N/A,0,11988,FMT100,03.27.13.Rev.03,FMT100_STDCFG_20042023_v1.3.cfg,,t,f,t,Responsive,GOOD,Good,51.571847,8.32209,2023-11-06,23:59:47,2023-11-06,23:53:46,2023-11-06,23:59:47
2023-11-07,357544370211522,cf551fd5-7d24-47df-85f8-2de6567694fe,23-0487-0718,Telestack TC-424X Haldenband,TELESTACK,TC-424X,OTHER,Linkamp GmbH - 1019244,default,Europe/Berlin,unallocated,TELTONIKA,2023-03-18,,N/A,0,12332,FMT100,03.27.13.Rev.03,FMT100_STDCFG_05042023_v1.2.cfg,,t,f,t,Responsive,GOOD,Low,51.572138,8.321795,2023-11-06,23:59:50,2023-11-06,23:53:20,2023-11-06,23:59:50
2023-11-07,357544370211571,d18483f8-fe29-45df-ad34-da02bad355f5,37008873,Skyjack SJ6832RT Hebebühne,SKYJACK,SJ6832RT,OTHER,Linkamp GmbH - 1019244,default,Europe/Berlin,unallocated,TELTONIKA,2023-03-07,,N/A,0,12548,FMT100,03.27.13.Rev.03,FMT100_STDCFG_05042023_v1.2.cfg,,t,f,t,Responsive,GOOD,Good,51.586523,8.111113,2023-11-06,23:59:44,2023-11-06,23:51:44,2023-11-06,23:59:44
2023-11-07,357544371043379,ef8939f9-2690-40f5-9f57-e9b17be8ae9b,ZF1F50MF7D1004870,Merlo TF30.9-115 Teleskoplader,MERLO,TF30.9-115,TELEHANDLER,Linkamp GmbH - 1019244,default,Europe/Berlin,unallocated,TELTONIKA,2023-04-01,,N/A,0,12937,FMT100,03.27.13.Rev.03,FMT100_STDCFG_20042023_v1.3.cfg,,t,f,t,Responsive,GOOD,Good,51.950833,7.168053,2023-11-06,23:59:53,2023-11-06,23:59:53,2023-11-06,23:59:53
2023-11-07,357544371149911,ef98f6f1-5cc4-4222-a17b-15c83bf4330e,23-1153-0921,Telestack TC424X Haldenband,TELESTACK,TC424X,OTHER,Linkamp GmbH - 1019244,default,Europe/Berlin,unallocated,TELTONIKA,2023-04-29,,N/A,0,12447,FMT100,03.27.13.Rev.03,FMT100_STDCFG_20042023_v1.3.cfg,,t,f,t,Responsive,GOOD,Low,51.57178,8.324405,2023-11-06,23:59:54,2023-11-06,23:51:54,2023-11-06,23:59:54
2023-11-07,357544371999919,f52529ab-0f89-4f90-ad78-d9b019243ac8,LJH04325,Cat Minibagger 301.7D,CATERPILLAR,301.7D,EXCAVATOR,Linkamp GmbH - 1019244,default,Europe/Berlin,unallocated,TELTONIKA,2023-04-22,,N/A,3944,12543,FMT100,03.27.13.Rev.03,20210126122900_always_on_calibrate_once.cfg,,t,f,t,Responsive,GOOD,Good,51.571205,8.323523,2023-11-06,23:59:36,2023-11-06,23:52:36,2023-11-06,23:59:36
2023-11-07,357544374385587,fc1cf821-eaf7-4062-8664-e3925e55ff90,23-0523-1018,Telestack TC-424X,TELESTACK,TC-424X,CRUSHER,Linkamp GmbH - 1019244,default,Europe/Berlin,unallocated,TELTONIKA,2023-01-17,,N/A,0,12668,FMT100,03.27.13.Rev.03,FMT100_STDCFG_05042023_v1.2.cfg,,t,f,t,Responsive,GOOD,Good,51.885042,8.352305,2023-11-06,23:59:47,2023-11-06,23:59:18,2023-11-06,23:59:47
2023-11-07,357544370206639,0aa88fc4-110b-47d8-ac39-42739c73e1c2,JCB5ABTGC81512310,JCB Telehandler 535-95,JCB,535-95,TELEHANDLER,Ernst Krebs GmbH & Co. KG - 370111,default,Europe/Berlin,unallocated,TELTONIKA,2022-11-29,,N/A,0,12252,FMT100,03.27.13.Rev.03,FMT100_STDCFG_05042023_v1.2.cfg,,t,f,t,Responsive,GOOD,Good,54.03993,9.98259,2023-11-06,23:59:33,2023-11-06,23:56:03,2023-11-06,23:59:33
2023-11-07,352625696643236,17cdae37-a4f3-45ee-95e4-5f5c90591dd7,VATZ1108PZB029339 ,Liebherr L506 Radlader,LIEBHERR,L506,WHEELED_LOADER,Ernst Krebs GmbH & Co. KG - 370111,default,Europe/Berlin,unallocated,TELTONIKA,2023-10-10,,N/A,0,5317,FMT100,03.27.13.Rev.03,FMT100_STDCFG_05042023_v1.2.cfg,,t,f,t,Responsive,GOOD,Good,51.901227,11.092188,2023-11-06,14:54:02,2023-11-06,14:48:32,2023-11-06,14:54:02
2023-11-07,352625699672596,aee1eaf3-f67d-4154-a5cf-c616f38aeb26,34434,VISA Stromaggregat V700GX,VISA,,GENERATOR,Ernst Krebs GmbH & Co. KG - 370111,default,Europe/Berlin,unallocated,TELTONIKA,2023-05-02,,N/A,0,12705,FMT100,03.27.13.Rev.03,FMT100_STDCFG_20042023_v1.3.cfg,,t,f,t,Responsive,GOOD,Low,49.858845,6.801567,2023-11-06,23:59:42,2023-11-06,23:56:11,2023-11-06,23:59:42
2023-11-07,357544370206191,e0345884-f6e8-420b-9027-9c4aa510bef6,VATZ0443CZB012881,Liebherr L544 radlader,LIEBHERR,L544,WHEELED_LOADER,Ernst Krebs GmbH & Co. KG - 370111,default,Europe/Berlin,unallocated,TELTONIKA,2023-02-22,,N/A,0,12624,FMT100,03.27.13.Rev.03,FMT100_STDCFG_05042023_v1.2.cfg,,t,f,t,Responsive,GOOD,Good,54.050113,9.981357,2023-11-06,23:59:31,2023-11-06,23:53:00,2023-11-06,23:59:31
2023-11-07,357544370708758,17cc53fc-8bc0-4e18-b55f-8a5436e1153e,WNCE2151V00000165 ,Zeppelin Bagger ZM110,ZEPPELIN,ZM110,EXCAVATOR,Eiffage Infra-Südwest GmbH - 169095,default,Europe/Berlin,unallocated,TELTONIKA,2023-09-05,,N/A,0,0,FMT100,03.25.18.Rev.08,20210126122900_always_on_calibrate_once.cfg,,t,f,t,Unresponsive,DISCONNECTED,Unknown,,,,,,,2021-12-25,22:26:03
2023-11-07,350424060064233,dc078882-4d77-4151-a2af-1b5288693771,39860,HITACHI  ZX135US-7-2P  2022B,HITACHI,ZX135US-7-2P,EXCAVATOR,EECOCUR SA,default,Europe/Brussels,unallocated,TELTONIKA,2023-04-24,,N/A,3990,25749,FMT100,03.27.13.Rev.03,v1.1--24012023-General-Purpose.cfg,,t,f,t,Responsive,GOOD,Good,50.487772,5.02672,2023-11-06,23:59:43,2023-11-06,23:53:12,2023-11-06,23:59:43
2023-11-07,357544370209591,fcb51d2c-1a49-4802-8181-1efef87bcbed,39847,HITACHI  ZX135US-7-MN  2022B,HITACHI,ZX135US-7-MN,EXCAVATOR,EECOCUR SA,default,Europe/Brussels,unallocated,TELTONIKA,2023-06-08,,N/A,0,25209,FMT100,03.27.13.Rev.03,FMT100_STDCFG_20042023_v1.3.cfg,,t,f,t,Responsive,GOOD,Good,50.73315,4.964233,2023-11-06,23:59:53,2023-11-06,23:54:53,2023-11-06,23:59:53
2023-11-07,357544370753267,840a8a98-ac72-4ec5-839e-62f457ee16a0,EX1,PC2000 Komatsu Excavator,KOMATSU,PC2000,EXCAVATOR,Tarmac Scotland,default,Europe/London,unallocated,TELTONIKA,2022-04-26,,N/A,0,26078,FMT100,03.27.13.Rev.03,FMT100_STDCFG_05042023_v1.2.cfg,,t,f,t,Responsive,GOOD,Low,55.9809,-2.455453,2023-11-06,23:59:49,2023-11-06,23:57:19,2023-11-06,23:59:49
2023-11-07,350424063054421,5eb9d1a3-47cd-4f6d-8533-59e92ba09e92,37832,77474KX019,KUBOTA,KX019-4 GL,EXCAVATOR,DE BOEVER KRIST BVBA,default,Europe/Brussels,unallocated,TELTONIKA,2022-11-24,,N/A,0,12389,FMT100,03.27.13.Rev.03,FMT100_STDCFG_05042023_v1.2.cfg,,t,f,t,Responsive,GOOD,Good,51.05753,3.275462,2023-11-06,23:59:36,2023-11-06,23:56:35,2023-11-06,23:59:36
2023-11-07,4CBC98321191F336,02632973-5609-4589-9da1-8dc2678fc4a9,VV 90T 890,Demolition 90T - SHEAR,HITACHI,890,EXCAVATOR,Shell Bukom,Shell Bukom,Asia/Singapore,unallocated,MAX ALA,2022-10-17,,31.1,2793,0,LORA,V1.10.35-A,Normal operation,Normal operation,t,f,t,Responsive,GOOD,N/A,1.234837,103.757294,2023-11-06,06:44:15,2023-11-06,23:53:24,2023-11-06,23:53:36
2023-11-07,357544371151172,0367a10a-39bd-4fd1-993d-85c1691dc92a,100T Mobile Crane (WC6486D),100T Mobile Crane (WC6486D),TEREX,Demag AC100,VEHICLE_MOUNTED_CRANE,Shell Bukom,Shell Bukom,Asia/Singapore,unallocated,TELTONIKA,2022-11-01,,N/A,0,25029,FMT100,03.27.13.Rev.03,FMT100_STDCFG_20042023_v1.3.cfg,,t,f,t,Responsive,GOOD,Good,1.227297,103.773628,2023-11-06,23:59:54,2023-11-06,23:54:24,2023-11-06,23:59:54
2023-11-07,863540061067071,05172f78-3ca9-4bb5-8ac0-babb79b5ca6b,(4G)TWC 160T Crane A (WC1084M),(4G)160T Mobile Crane A (WC1084M),TEREX,Terex Demag AC160-2,ROUGH_TERRAIN_CRANE,Shell Bukom,Shell Bukom,Asia/Singapore,unallocated,TELTONIKA,2023-03-05,,N/A,0,0,FMC230,03.27.13.Rev.54,FMC230_24v_STDCFG_05042023_v1.0.cfg,,t,f,t,Responsive,DISCONNECTED,Unknown,1.235862,103.756127,2023-11-06,23:59:51,2023-11-06,23:58:44,2023-11-06,23:59:51
2023-11-07,863540061121571,0704077d-13e4-4009-b70d-6e8e8aecf6ae," (4G) Munsiong 50T PU2 Crane",Munsiong 50T PU2 Crane,DEMAREC,,VEHICLE_MOUNTED_CRANE,Shell Bukom,Shell Bukom,Asia/Singapore,unallocated,TELTONIKA,2023-03-06,,N/A,0,25955,FMC230,03.27.13.Rev.54,FMC230_24v_STDCFG_05042023_v1.0.cfg,,t,f,t,Responsive,GOOD,Good,1.227445,103.773573,2023-11-06,23:59:52,2023-11-06,23:52:22,2023-11-06,23:59:52
2023-11-07,352625698561220,0f0c222c-f67b-4aff-a93d-f3cb9c83d3ae,TWC 160T PU2/ITM Crane (WC4090A),160T Mobile Crane PU2/ITM (WC4090A),TEREX,,ROUGH_TERRAIN_CRANE,Shell Bukom,Shell Bukom,Asia/Singapore,unallocated,TELTONIKA,2022-10-20,,N/A,0,23981,FMT100,03.27.13.Rev.03,FMT100_STDCFG_05042023_v1.2.cfg,,t,f,t,Responsive,GOOD,Low,1.238337,103.765393,2023-11-06,23:58:24,2023-11-06,23:56:24,2023-11-06,23:58:24
2023-11-07,863719060898542,202041cc-4bdd-4b5e-a18a-63e3bdfb5d9d,M10 RU6863M 45-seater,M10 RU6863M 45-seater,OTHER,,VEHICLE,Shell Bukom,Shell Bukom,Asia/Singapore,unallocated,TELTONIKA,2023-08-16,,N/A,0,13135,FMC230,03.27.13.Rev.443,GCF025_202303280843.cfg,,t,f,t,Responsive,GOOD,Good,1.224812,103.776102,2023-11-06,23:59:50,2023-11-06,23:57:30,2023-11-06,23:59:50
2023-11-07,4CBC983211CB27C5,308ccc7b-2538-4b95-82ca-6d04309e938e,VV 35T,Demolition 35T ,HITACHI,350,EXCAVATOR,Shell Bukom,Shell Bukom,Asia/Singapore,unallocated,MAX ALA,2022-10-17,,68.1,2887,0,LORA,V1.10.35-A,Normal operation,Normal operation,t,f,t,Unresponsive,GOOD,N/A,1.233935,103.758163,2023-10-24,13:00:20,2023-10-25,05:45:55,2023-10-25,05:45:24
2023-11-07,863719060582922,322b0d12-b549-41cd-940f-298ba5fe6125,M3 RU6867C 49-seater,M3 RU6867C 49-seater,OTHER,,VEHICLE,Shell Bukom,Shell Bukom,Asia/Singapore,unallocated,TELTONIKA,2023-08-22,,N/A,0,13156,FMC230,03.27.13.Rev.443,GCF025_202303280843.cfg,,t,f,t,Responsive,GOOD,Good,1.231598,103.759,2023-11-06,23:59:56,2023-11-06,23:52:35,2023-11-06,23:59:56
2023-11-07,357544371149804,378b3f38-688f-4874-87a5-6c67a867115a,TWC 10T Crane (KR10H-LII),Bukom Maint 10T Crane (KR10H-LII),OTHER,KR10H-LII,ROUGH_TERRAIN_CRANE,Shell Bukom,Shell Bukom,Asia/Singapore,unallocated,TELTONIKA,2022-10-20,,N/A,0,22986,FMT100,03.27.13.Rev.03,FMT100_STDCFG_20042023_v1.3.cfg,,t,f,t,Responsive,GOOD,Low,1.226057,103.773513,2023-11-06,22:19:54,2023-11-06,22:13:53,2023-11-06,22:19:54
2023-11-07,863540061060175,3e7e0936-0ae2-4232-95b0-ea37fc8447b7,(4G)TWC 160T PU2/ITM Crane (WC4090A),(4G)160T Mobile Crane PU2/ITM (WC4090A),TEREX,,ROUGH_TERRAIN_CRANE,Shell Bukom,Shell Bukom,Asia/Singapore,unallocated,TELTONIKA,2023-03-05,,N/A,0,0,FMC230,03.27.13.Rev.54,FMC230_24v_STDCFG_05042023_v1.0.cfg,,t,f,t,Responsive,DISCONNECTED,Unknown,1.23832,103.765373,2023-11-06,23:59:38,2023-11-06,23:50:31,2023-11-06,23:59:38
2023-11-07,352625698558457,4012290e-4868-4b21-b574-0308a7d28914,TWC 300T Crane (WC8922Z),Bukom ECC Dedicated 300T Crane (WC8922Z),GROVE,GMK 6300L,ROUGH_TERRAIN_CRANE,Shell Bukom,Shell Bukom,Asia/Singapore,unallocated,TELTONIKA,2022-10-20,,N/A,0,25149,FMT100,03.27.13.Rev.03,FMT100_STDCFG_05042023_v1.2.cfg,,t,f,t,Responsive,GOOD,Low,1.23051,103.750788,2023-11-06,23:59:37,2023-11-06,23:55:37,2023-11-06,23:59:37
2023-11-07,863540061115599,4884b79c-0c27-4020-ae34-76c9d2ddb2aa,(4G) Munsiong 50T PU5 Crane,Munsiong 50T PU5 Crane,DEMAREC,,CRAWLER_CRANE,Shell Bukom,Shell Bukom,Asia/Singapore,unallocated,TELTONIKA,2023-03-06,,N/A,0,24154,FMC230,03.27.13.Rev.54,FMC230_24v_STDCFG_05042023_v1.0.cfg,,t,f,t,Responsive,GOOD,Good,1.23046,103.750642,2023-11-06,23:59:35,2023-11-06,23:55:05,2023-11-06,23:59:35
2023-11-07,357544371998440,4e37835f-fc36-4f8e-9462-fd7f6cf8a833,TWC 50T Crane (GMK3050),50T Mobile Crane (GMK3050),GROVE,GMK3050,ROUGH_TERRAIN_CRANE,Shell Bukom,Shell Bukom,Asia/Singapore,unallocated,TELTONIKA,2022-10-20,,N/A,0,22866,FMT100,03.27.13.Rev.03,FMT100_STDCFG_05042023_v1.2.cfg,,t,f,t,Responsive,GOOD,Low,1.227428,103.7736,2023-11-06,23:59:57,2023-11-06,23:53:26,2040-01-02,03:21:37
2023-11-07,863719060725018,54a26d98-0831-4245-8d3a-5bbe95fd84be,M9 RU6801S 45-seater bus,M9 RU6801S 45-seater bus,OTHER,,VEHICLE,Shell Bukom,Shell Bukom,Asia/Singapore,unallocated,TELTONIKA,2023-08-16,,N/A,0,14097,FMC230,03.27.13.Rev.443,GCF025_202303280843.cfg,,t,f,t,Responsive,GOOD,Good,1.231762,103.772333,2023-11-06,23:59:54,2023-11-06,23:53:43,2023-11-06,23:59:54
2023-11-07,352625696852670,577db8f5-bfed-4677-8310-68fe3f0b0855,MSE PU5 14ft Lorry,MSE PU5 14ft Lorry,OTHER,,VEHICLE,Shell Bukom,Shell Bukom,Asia/Singapore,unallocated,TELTONIKA,2023-08-16,,N/A,0,0,FMT100,03.25.18.Rev.08,20210126122900_always_on_calibrate_once.cfg,,t,f,t,Unresponsive,DISCONNECTED,Unknown,,,,,,,2021-12-27,19:24:39
2023-11-07,863719060724359,5c386c16-ae9a-4052-99f7-354f06490749,M11 RU6805G 49-seater Bus,M11 RU6805G 49-seater Bus,OTHER,,VEHICLE,Shell Bukom,Shell Bukom,Asia/Singapore,unallocated,TELTONIKA,2023-08-16,,N/A,0,14012,FMC230,03.27.13.Rev.443,GCF025_202303280843.cfg,,t,f,t,Responsive,GOOD,Good,1.23562,103.763942,2023-11-06,23:59:51,2023-11-06,23:53:11,2023-11-06,23:59:51
2023-11-07,357544371051695,5f4eaef3-9549-45fb-9877-73ec7a576df1,MSE PU1 50T Crane,MSE PU1 50T Crane,OTHER,,ROUGH_TERRAIN_CRANE,Shell Bukom,Shell Bukom,Asia/Singapore,unallocated,TELTONIKA,2023-08-16,,N/A,4102,12706,FMT100,03.27.10.Rev.02,20210126122900_always_on_calibrate_once.cfg,,t,f,t,Unresponsive,GOOD,Low,,,,,,,2022-09-26,13:01:09
2023-11-07,863540061091493,67ffadbd-ca31-422d-ba48-0b6485fe33b2,(4G) Munsiong 25T PU4 Crane,Munsiong 25T PU4 Crane,DEMAREC,,CRAWLER_CRANE,Shell Bukom,Shell Bukom,Asia/Singapore,unallocated,TELTONIKA,2023-03-06,,N/A,0,0,FMC230,03.27.13.Rev.54,FMC230_24v_STDCFG_05042023_v1.0.cfg,,t,f,t,Unresponsive,DISCONNECTED,Good,1.225133,103.774698,2023-08-16,07:17:47,2023-08-16,07:16:47,2023-08-16,07:17:47
2023-11-07,352625698564505,79cb8fb7-166a-4d56-85db-03572c361b06,160T Mobile Crane B (WC4295B),160T Mobile Crane B (WC4295B),TEREX,,ROUGH_TERRAIN_CRANE,Shell Bukom,Shell Bukom,Asia/Singapore,unallocated,TELTONIKA,2022-10-20,,N/A,0,24988,FMT100,03.27.13.Rev.03,FMT100_STDCFG_05042023_v1.2.cfg,,t,f,t,Responsive,GOOD,Low,1.238257,103.765345,2023-11-06,22:04:24,2023-11-06,16:52:27,2023-11-06,22:04:24
2023-11-07,352625698561030,890b137d-2a4a-4c51-8aaf-708b2d10fb80,TWC 160T Mobile Crane C (WD5066J),160T Mobile Crane C (WD5066J),TADANO,,ROUGH_TERRAIN_CRANE,Shell Bukom,Shell Bukom,Asia/Singapore,unallocated,TELTONIKA,2022-10-20,,N/A,0,25438,FMT100,03.27.13.Rev.03,FMT100_STDCFG_05042023_v1.2.cfg,,t,f,t,Responsive,GOOD,Good,1.230368,103.767953,2023-11-06,23:59:40,2023-11-06,23:51:38,2023-11-06,23:59:40
2023-11-07,357544370695641,8982aab9-2ba3-4f99-a81c-24b3f50b2279,TWC 160T Crane D (WC2772D),160T Mobile Crane D Proj/Constr (WC2772D),TEREX,,ROUGH_TERRAIN_CRANE,Shell Bukom,Shell Bukom,Asia/Singapore,unallocated,TELTONIKA,2022-10-20,,N/A,0,25397,FMT100,03.27.13.Rev.03,FMT100_STDCFG_05042023_v1.2.cfg,,t,f,t,Responsive,GOOD,Low,1.235977,103.756362,2023-11-06,16:34:11,2023-11-06,16:33:40,2040-01-02,02:49:05
2023-11-07,863719060581551,8b0e072f-03d2-43b7-823f-17e3f421fe9c,M12 RU6798T 59-seater Bus,M12 RU6798T 59-seater Bus,OTHER,,VEHICLE,Shell Bukom,Shell Bukom,Asia/Singapore,unallocated,TELTONIKA,2023-08-16,,N/A,0,14095,FMC230,03.27.13.Rev.443,GCF025_202303280843.cfg,,t,f,t,Responsive,GOOD,Good,1.23535,103.763518,2023-11-06,23:59:59,2023-11-06,23:57:48,2023-11-06,23:59:59
2023-11-07,863719060892958,98a6315d-5164-4cf7-bb57-d3f91a6b036c,M8 RU6866E 49-seater,M8 RU6866E 49-seater,OTHER,,VEHICLE,Shell Bukom,Shell Bukom,Asia/Singapore,unallocated,TELTONIKA,2023-08-16,,N/A,0,13226,FMC230,03.27.13.Rev.443,GCF025_202303280843.cfg,,t,f,t,Responsive,GOOD,Good,1.23538,103.763588,2023-11-06,23:59:58,2023-11-06,23:58:08,2023-11-06,23:59:58
2023-11-07,863719060719607,9dd7b6a6-2d9b-4f73-94de-44fd5ea1037a,M6 RU6865H 59-seater Bus,M6 RU6865H 59-seater Bus,OTHER,,VEHICLE,Shell Bukom,Shell Bukom,Asia/Singapore,unallocated,TELTONIKA,2023-08-16,,N/A,0,13103,FMC230,03.27.13.Rev.443,GCF025_202303280843.cfg,,t,f,t,Responsive,GOOD,Good,1.228743,103.774708,2023-11-06,23:59:58,2023-11-06,23:50:08,2023-11-06,23:59:58
2023-11-07,863719060724490,a11cf585-1782-4a63-bb50-88c35f998ff6,M7 RU6797X 45-seater Bus,M7 RU6797X 45-seater Bus,OTHER,,VEHICLE,Shell Bukom,Shell Bukom,Asia/Singapore,unallocated,TELTONIKA,2023-08-16,,N/A,0,14160,FMC230,03.27.13.Rev.443,GCF025_202303280843.cfg,,t,f,t,Responsive,GOOD,Good,1.230627,103.756015,2023-11-06,23:59:58,2023-11-06,23:51:47,2023-11-06,23:59:58
2023-11-07,863719060898112,a38aabb8-54e2-4002-bd47-f8558d5f9afc,BBTA23-TWC-7T-FORKLIFT(WD2111G),BBTA23-TWC-7T-FORKLIFT(WD2111G),OTHER,,DIESEL_FORKLIFT,Shell Bukom,Shell Bukom,Asia/Singapore,unallocated,TELTONIKA,2023-08-22,,N/A,0,0,FMC230,03.27.13.Rev.443,GCF025_202303280843.cfg,,t,f,t,Responsive,DISCONNECTED,Good,1.226518,103.773702,2023-11-04,01:58:02,2023-11-04,01:53:27,2023-11-04,01:58:02
2023-11-07,4CBC983211E8CE52,a65d11c0-d5e3-4681-8f07-fa81cf7ded8b,VV 60T,Demolition 60T,HITACHI,960,EXCAVATOR,Shell Bukom,Shell Bukom,Asia/Singapore,unallocated,MAX ALA,2022-10-17,,99.2,3002,0,LORA,V1.10.35-A,Normal operation,Normal operation,t,f,t,Responsive,GOOD,N/A,1.23444,103.757607,2023-11-06,15:16:19,2023-11-06,23:41:54,2023-11-06,23:43:46
2023-11-07,863719060898724,abbced46-3a22-4926-a164-c0a625d80bd0,M1 PC6150C 23-seater,M1 PC6150C 23-seater,OTHER,,VEHICLE,Shell Bukom,Shell Bukom,Asia/Singapore,unallocated,TELTONIKA,2023-08-16,,N/A,0,12926,FMC230,03.27.13.Rev.443,GCF025_202303280843.cfg,,t,f,t,Responsive,GOOD,Good,1.434508,103.745692,2023-11-06,23:59:52,2023-11-06,23:51:52,2023-11-06,23:59:52
2023-11-07,4CBC983211DE5C71,ad607755-dec5-402c-9dd8-75a135b82028,VV 160T,Demolition 160T,HITACHI,Hitachi 870 Triple R81 (10270-1),EXCAVATOR,Shell Bukom,Shell Bukom,Asia/Singapore,unallocated,MAX ALA,2022-10-17,,99.2,2935,0,LORA,V1.10.35-A,Normal operation,Normal operation,t,f,t,Responsive,GOOD,N/A,1.234106,103.757729,2023-11-06,16:59:17,2023-11-06,23:57:07,2023-11-06,23:58:06
2023-11-07,352625698557988,b4fb83b4-b0e6-4771-a1bd-195377fd40ca,TWC 100T Crane (WC8291K),Bukom Maint 100T Crane (WC8291K),LIEBHERR,LTM1100 4.2,ROUGH_TERRAIN_CRANE,Shell Bukom,Shell Bukom,Asia/Singapore,unallocated,TELTONIKA,2022-10-20,,N/A,0,24433,FMT100,03.27.13.Rev.03,FMT100_STDCFG_05042023_v1.2.cfg,,t,f,t,Responsive,GOOD,Low,1.227135,103.777802,2023-11-06,21:39:58,2023-11-06,21:39:58,2023-11-06,21:39:58
2023-11-07,863719060703866,c3a12edc-55b8-4cca-8306-6cc793610ec2,M4 RU6864K 49-seater,M4 RU6864K 49-seater,OTHER,,VEHICLE,Shell Bukom,Shell Bukom,Asia/Singapore,unallocated,TELTONIKA,2023-08-16,,N/A,0,12619,FMC230,03.27.13.Rev.443,GCF025_202303280843.cfg,,t,f,t,Responsive,GOOD,Good,1.434588,103.74583,2023-11-06,23:59:58,2023-11-06,23:51:28,2023-11-06,23:59:58
2023-11-07,357544370753101,cbec62e2-43df-4151-94c6-47310aa85e66,MSE PU2 14ft Lorry,MSE PU2 14ft Lorry,OTHER,,VEHICLE,Shell Bukom,Shell Bukom,Asia/Singapore,unallocated,TELTONIKA,2023-08-16,,N/A,3720,0,FMT100,03.25.18.Rev.08,20210126122900_always_on_calibrate_once.cfg,,t,f,t,Unresponsive,DISCONNECTED,Low,,,,,,,2022-08-15,00:52:11
2023-11-07,4CBC9832118209FC,d12d7d3b-c86c-4903-b04c-c4500874352f,VV 70T - 870 ,Demolition 70T,HITACHI,895,EXCAVATOR,Shell Bukom,Shell Bukom,Asia/Singapore,unallocated,MAX ALA,2022-11-30,,19.3,2700,0,LORA,V1.10.35-A,Normal operation,Normal operation,t,f,t,Unresponsive,DEAD,N/A,1.234515,103.757179,2023-02-16,18:40:20,2023-08-09,05:33:19,2023-08-09,05:32:34
2023-11-07,863719060724664,d2ec3044-8127-4faf-a02f-6adc2f159436,M2 RU6862 59-seater,M2 RU6862 59-seater,OTHER,,VEHICLE,Shell Bukom,Shell Bukom,Asia/Singapore,unallocated,TELTONIKA,2023-08-16,,N/A,0,13285,FMC230,03.27.13.Rev.443,GCF025_202303280843.cfg,,t,f,t,Responsive,GOOD,Good,1.229863,103.762677,2023-11-06,23:59:58,2023-11-06,23:50:38,2023-11-06,23:59:58
2023-11-07,4CBC9832112A246C,d5f620c5-0c1a-44ab-aaec-4e17afaaff5f,160T Crane A (WC1084M),160T Crane A (WC1084M),TEREX,Terex Demag AC160-2,ROUGH_TERRAIN_CRANE,Shell Bukom,Shell Bukom,Asia/Singapore,unallocated,MAX ALA,2022-06-21,,35.8,2820,0,LORA,V1.10.35-A,Normal operation,Normal operation,t,f,f,Responsive,GOOD,N/A,1.235821,103.756081,2023-11-06,18:12:31,2023-11-06,23:43:22,2023-11-06,23:44:17
2023-11-07,357544370755965,d5f620c5-0c1a-44ab-aaec-4e17afaaff5f,160T Crane A (WC1084M),160T Crane A (WC1084M),TEREX,Terex Demag AC160-2,ROUGH_TERRAIN_CRANE,Shell Bukom,Shell Bukom,Asia/Singapore,unallocated,TELTONIKA,2022-06-21,,N/A,0,25179,FMT100,03.27.13.Rev.03,FMT100_STDCFG_20042023_v1.3.cfg,,f,f,t,Responsive,GOOD,Good,1.235821,103.756081,2023-11-06,18:12:31,2023-11-06,23:43:22,2023-11-06,16:34:27
2023-11-07,863719060719524,d5f86abf-c1f3-4f85-9114-3d70aafbe41d,M5 RU6881K 49-seater,M5 RU6881K 49-seater,OTHER,,VEHICLE,Shell Bukom,Shell Bukom,Asia/Singapore,unallocated,TELTONIKA,2023-08-16,,N/A,0,12557,FMC230,03.27.13.Rev.443,GCF025_202303280843.cfg,,t,f,t,Responsive,GOOD,Good,1.22939,103.77251,2023-11-06,23:59:53,2023-11-06,23:55:13,2023-11-06,23:59:53
2023-11-07,352625696848447,d7cecb26-1a2e-47ce-8826-7c9fda551234,MSE PU1 14ft Lorry,MSE PU1 14ft Lorry,OTHER,,VEHICLE,Shell Bukom,Shell Bukom,Asia/Singapore,unallocated,TELTONIKA,2023-08-16,,N/A,3399,0,FMT100,03.27.10.Rev.02,20210126122900_always_on_calibrate_once.cfg,,t,f,t,Unresponsive,DISCONNECTED,Good,,,,,,,2022-09-28,09:35:09
2023-11-07,4CBC983211A39C8B,d903eb6f-730e-4cae-8ff9-80c65e5e4f85,VV Demolition MH,Demolition Material Handler / Grappler,OTHER,Sennebogen 830 M,EXCAVATOR,Shell Bukom,Shell Bukom,Asia/Singapore,unallocated,MAX ALA,2022-10-17,,33.9,2810,0,LORA,V1.10.35-A,Normal operation,Normal operation,t,f,t,Responsive,GOOD,N/A,1.233491,103.757507,2023-11-05,13:37:24,2023-11-06,23:59:03,2023-11-06,23:59:59
2023-11-07,357544370746915,ea640671-33c2-49b4-a76a-56c5fb9674fa,MSE PU4/Marine 14ft Lorry,MSE PU4/Marine 14ft Lorry,OTHER,,VEHICLE,Shell Bukom,Shell Bukom,Asia/Singapore,unallocated,TELTONIKA,2022-11-29,,N/A,0,0,FMT100,03.25.18.Rev.08,20210126122900_always_on_calibrate_once.cfg,,t,f,t,Unresponsive,DISCONNECTED,Unknown,,,,,,,2021-12-27,20:11:34
2023-11-07,357544370749802,fa6df8c2-d0d6-4281-9d5e-a273d3393c9f,200T Crane E (WC8409P),200T Mobile Crane E Projects/Constr (WC8409P),LIEBHERR,Lienherr LTM 1200,ROUGH_TERRAIN_CRANE,Shell Bukom,Shell Bukom,Asia/Singapore,unallocated,TELTONIKA,2022-04-04,,N/A,0,28009,FMT100,03.27.10.Rev.02,FMT100_STDCFG_20042023_v1.3.cfg,,f,f,t,Responsive,GOOD,Low,1.226157,103.774232,2023-11-06,07:06:12,2023-10-19,01:40:05,2023-11-06,07:06:12
2023-11-07,4CBC9832117C5036,fa6df8c2-d0d6-4281-9d5e-a273d3393c9f,200T Crane E (WC8409P),200T Mobile Crane E Projects/Constr (WC8409P),LIEBHERR,Lienherr LTM 1200,ROUGH_TERRAIN_CRANE,Shell Bukom,Shell Bukom,Asia/Singapore,unallocated,MAX ALA,2022-04-04,,15.7,2659,0,LORA,V1.10.35-A,Normal operation,Normal operation,t,f,f,Unresponsive,DEAD,N/A,1.226157,103.774232,2023-11-06,07:06:12,2023-10-19,01:40:05,2023-10-19,01:39:30
2023-11-07,4CBC98321173AEB6,5d66284d-2523-4ae2-9507-18b60f790fd8,Maintenance 160T Mobile Crane,Maintenance 160T Mobile Crane,TEREX,AC160-5,ROUGH_TERRAIN_CRANE,Shell Bukom,Shell Jurong Island,Asia/Singapore,unallocated,MAX ALA,2023-10-25,,99.6,3095,0,LORA,V1.10.35-A,Normal operation,Normal operation,t,f,t,Responsive,GOOD,N/A,1.273546,103.729424,2023-11-06,08:01:29,2023-11-06,23:56:49,2023-11-06,23:56:57
2023-11-07,4CBC983211D79DFB,865e36d3-fc8e-4772-91ff-60bab0c68a60,Maintenance 60T Mobile Crane,Maintenance 60T Mobile Crane,OTHER,XCT60-Y,ROUGH_TERRAIN_CRANE,Shell Bukom,Shell Jurong Island,Asia/Singapore,unallocated,MAX ALA,2023-10-25,,99.6,3076,0,LORA,V1.10.35-A,Normal operation,Normal operation,t,f,t,Responsive,GOOD,N/A,1.273027,103.7295,2023-11-06,03:29:41,2023-11-06,23:59:25,2023-11-06,23:59:49
2023-11-07,4CBC983211519D83,dd51da99-6109-45b4-b0f1-fa39065ba8ae,Maintenance MiniCrane,Maintenance REEDYK MiniCrane,OTHER,PC4405-EX,CRAWLER_CRANE,Shell Bukom,Shell Jurong Island,Asia/Singapore,unallocated,MAX ALA,2023-10-25,,99.6,3062,0,LORA,V1.10.35-A,Normal operation,Normal operation,t,f,t,Responsive,GOOD,N/A,1.271788,103.728149,2022-10-10,16:57:04,2023-11-06,23:54:52,2023-11-06,23:59:09
2023-11-07,350424063056814,0b50d4a8-1052-4c64-8fb9-2adfc3dc00de,39435,KUBOTA  KX080-4 a2 2P GL  2022A,KUBOTA,KX080-4 a2 2P GL,EXCAVATOR,WANTY MAURICE SA,default,Europe/Brussels,unallocated,TELTONIKA,2023-04-03,,N/A,4055,12835,FMT100,03.27.13.Rev.443,v1.1--24012023-General-Purpose.cfg,,t,f,t,Responsive,GOOD,Good,50.505145,4.250807,2023-11-06,23:59:39,2023-11-06,23:54:12,2023-11-06,23:59:39
2023-11-07,350424063049231,3e07b037-6cde-43ac-ad8b-03b9a3bd6b3a,38002,KUBOTA  U50-5 KGLS2  2022B,KUBOTA,U50-5 KGLS2,EXCAVATOR,WANTY MAURICE SA,default,Europe/Brussels,unallocated,TELTONIKA,2023-03-22,,N/A,0,12852,FMT100,03.27.13.Rev.03,FMT100_STDCFG_05042023_v1.2.cfg,,t,f,t,Responsive,GOOD,Good,50.456058,4.241962,2023-11-06,23:59:30,2023-11-06,23:51:58,2023-11-06,23:59:30
2023-11-07,357544370207363,75b01bf1-0aed-4ab4-a158-bba2bd967380,39436,KUBOTA  U56-5 KGLS2 (version L)  2022A,KUBOTA,U56-5 KGLS2 (version L),EXCAVATOR,WANTY MAURICE SA,default,Europe/Brussels,unallocated,TELTONIKA,2023-06-12,,N/A,0,12802,FMT100,03.27.13.Rev.03,FMT100_STDCFG_20042023_v1.3.cfg,,t,f,t,Responsive,GOOD,Good,50.412423,4.163492,2023-11-06,23:59:53,2023-11-06,23:59:53,2023-11-06,23:59:53
2023-11-07,350424062899115,b15dd4e8-6c10-40d0-b6ba-7db835915520,38818,KUBOTA  U50-5 KGLS2  2022B,KUBOTA,U50-5 KGLS2,EXCAVATOR,WANTY MAURICE SA,default,Europe/Brussels,unallocated,TELTONIKA,2023-03-27,,N/A,0,12467,FMT100,03.27.13.Rev.03,FMT100_STDCFG_05042023_v1.2.cfg,,t,f,t,Responsive,GOOD,Good,50.429922,4.172408,2023-11-06,23:59:46,2023-11-06,23:52:45,2023-11-06,23:59:46
2023-11-07,357544371873486,e25fc199-2d1e-4d43-ab29-ef88e573bf51,39437,HITACHI  ZX225USLC-7-MN  2022B,HITACHI,ZX225USLC-7-MN,EXCAVATOR,WANTY MAURICE SA,default,Europe/Brussels,unallocated,TELTONIKA,2023-05-09,,N/A,3949,25798,FMT100,03.27.13.Rev.03,20210126122900_always_on_calibrate_once.cfg,,t,f,t,Responsive,GOOD,Good,50.603698,5.54323,2023-11-06,23:59:41,2023-11-06,23:53:10,2023-11-06,23:59:41
2023-11-07,860186054939786,e0b5d73f-1ea0-4315-bf5b-c02dc8e41d48,21284-4,Resch-Ka Tec Tieflöffel VTL 1600 mm,RESCH_KA_TEC,VTL 1600 mm,ATTACHMENT,Hugo Schneider GmbH - 775027,default,Europe/Berlin,unallocated,MAX ACW,2023-05-16,,97.6,2997,0,CELLULAR,V1.8.48-A,Normal operation,Normal operation,t,f,t,Responsive,GOOD,N/A,51.694252,7.490383,2023-11-06,12:00:31,2023-11-06,15:43:51,2023-11-06,15:43:51
2023-11-07,357544374693287,111704be-5422-496e-8051-5f47e3392ad0,MMH28 - A934C St Denis 44216,Material Handler,LIEBHERR,A934C,EXCAVATOR,CEMEX S.A.B. de C.V. ,St Denis,Europe/Paris,unallocated,TELTONIKA,2023-01-24,,N/A,0,0,FMT100,03.27.13.Rev.03,FMT100_STDCFG_20042023_v1.3.cfg,,f,f,t,Unresponsive,DISCONNECTED,Good,48.94635,2.01624,2023-11-06,12:01:14,2023-11-06,18:11:43,2023-10-12,06:42:59
2023-11-07,860536043105404,111704be-5422-496e-8051-5f47e3392ad0,MMH28 - A934C St Denis 44216,Material Handler,LIEBHERR,A934C,EXCAVATOR,CEMEX S.A.B. de C.V. ,St Denis,Europe/Paris,unallocated,MAX ACW,2023-01-24,,99.2,2933,0,CELLULAR,V1.5.37-B,Normal operation,Normal operation,t,f,f,Responsive,GOOD,N/A,48.94635,2.01624,2023-11-06,12:01:14,2023-11-06,18:11:43,2023-11-06,18:11:43
2023-11-07,357544374364822,1844bc64-27e1-4a62-ab5b-c7e7ca8ef6bd,MMH18 - LH50 St Denis,Material Handler,LIEBHERR,LH50M,EXCAVATOR,CEMEX S.A.B. de C.V. ,St Denis,Europe/Paris,unallocated,TELTONIKA,2023-01-24,,N/A,0,0,FMT100,03.27.13.Rev.03,FMT100_STDCFG_20042023_v1.3.cfg,,f,f,t,Responsive,DISCONNECTED,Good,48.930458,2.340733,2023-11-06,16:02:20,2023-11-06,22:11:19,2023-11-06,16:02:20
2023-11-07,860536043094418,1844bc64-27e1-4a62-ab5b-c7e7ca8ef6bd,MMH18 - LH50 St Denis,Material Handler,LIEBHERR,LH50M,EXCAVATOR,CEMEX S.A.B. de C.V. ,St Denis,Europe/Paris,unallocated,MAX ACW,2023-01-24,,99.2,2931,0,CELLULAR,V1.5.37-B,Normal operation,Normal operation,t,f,f,Responsive,GOOD,N/A,48.930458,2.340733,2023-11-06,16:02:20,2023-11-06,22:11:19,2023-11-06,22:11:19
2023-11-07,357544374366124,7e343838-110b-4a3c-8709-0c4ef35e4b97,MWL812 ,Chargeur Liebherr 538 St Denis,LIEBHERR,L538ZIIIB,WHEELED_LOADER,CEMEX S.A.B. de C.V. ,St Denis,Europe/Paris,unallocated,TELTONIKA,2022-01-19,,N/A,0,25697,FMT100,03.27.13.Rev.03,FMT100_STDCFG_05042023_v1.2.cfg,,t,f,t,Responsive,GOOD,Good,48.930688,2.34112,2023-11-06,23:59:35,2023-11-06,23:59:05,2023-11-06,23:59:35
2023-11-07,357544374374128,f8edcc70-32ca-4940-8537-984922f85e8d,MMH33 - A934C St Denis,Material Handler,LIEBHERR,A934 C LITRONIC,EXCAVATOR,CEMEX S.A.B. de C.V. ,St Denis,Europe/Paris,unallocated,TELTONIKA,2022-04-12,,N/A,0,18746,FMT100,03.27.13.Rev.03,FMT100_STDCFG_05042023_v1.2.cfg,,t,f,t,Responsive,GOOD,Low,48.629633,2.460942,2023-11-06,23:58:35,2023-11-06,23:51:34,2023-11-06,23:58:35
2023-11-07,352625698553946,cc6a283d-6580-45fe-853b-8196f00d49b7,Mini Digger,Mini Digger,CATERPILLAR,,EXCAVATOR,CEMEX S.A.B. de C.V. ,Port Victor,Europe/Paris,unallocated,TELTONIKA,2022-11-02,,N/A,0,12880,FMT100,03.27.13.Rev.03,FMT100_STDCFG_05042023_v1.2.cfg,,t,f,t,Responsive,GOOD,Good,48.835985,2.266018,2023-11-06,23:59:30,2023-11-06,23:53:29,2023-11-06,23:59:30
2023-11-07,352625698532684,e7cd4b0c-1f0b-4650-acb9-2f859f2459f1,MWL910,Wheel Loader,VOLVO,L60H,WHEELED_LOADER,CEMEX S.A.B. de C.V. ,Port Victor,Europe/Paris,unallocated,TELTONIKA,2022-10-13,,N/A,0,0,FMT100,03.27.13.Rev.03,FMT100_STDCFG_05042023_v1.2.cfg,,t,f,t,Unresponsive,DISCONNECTED,Good,48.835833,2.266287,2023-06-03,03:09:18,2023-06-03,03:01:16,2023-06-03,03:09:18
2023-11-07,357544372561544,362b66c8-d62f-47c2-aa9b-f374b06941b8,MWL685 - 972MXE Caterpillar Gennevilliers,WHEEL LOADER,CATERPILLAR,972 MXE,WHEELED_LOADER,CEMEX S.A.B. de C.V. ,Gennevilliers,Europe/Paris,unallocated,TELTONIKA,2022-01-21,,N/A,0,24874,FMT100,03.27.13.Rev.03,FMT100_STDCFG_05042023_v1.2.cfg,,t,f,t,Responsive,GOOD,Good,48.948927,2.293565,2023-11-06,23:59:43,2023-11-06,23:55:43,2023-11-06,23:59:43
2023-11-07,862315066428185,47d4a96f-7422-4013-8f00-0e0c0170773d,MEX79 CAT323D,"Pelle sur chenilles Cat,323D",CATERPILLAR,323D,EXCAVATOR,CEMEX S.A.B. de C.V. ,Gennevilliers,Europe/Paris,unallocated,MAX ACW,2023-07-19,,99.2,3013,0,CELLULAR,V1.8.48-A,Normal operation,Normal operation,t,f,t,Responsive,GOOD,N/A,48.948555,2.292105,2023-11-06,12:01:03,2023-11-06,18:05:16,2023-11-06,18:05:16
2023-11-07,350612075416188,6ef4ed77-9678-443f-bd85-a2d4eba5ec2f,MWL1105,Chargeur Komatsu WA475-10,KOMATSU,WA475-10,WHEELED_LOADER,CEMEX S.A.B. de C.V. ,Gennevilliers,Europe/Paris,unallocated,TELTONIKA,2023-07-18,,N/A,0,25901,FMT100,03.27.13.Rev.03,GCF355_202208120816.cfg,,t,f,t,Responsive,GOOD,Good,48.949003,2.29285,2023-11-06,23:59:38,2023-11-06,23:51:36,2023-11-06,23:59:38
2023-11-07,357544374374045,731d7004-76b0-4321-aa9d-77cd2cb1e08b,MMH23,Material Handler,SENNEBOGEN,835M-E,EXCAVATOR,CEMEX S.A.B. de C.V. ,Gennevilliers,Europe/Paris,unallocated,TELTONIKA,2022-04-12,,N/A,0,23429,FMT100,03.27.13.Rev.03,FMT100_STDCFG_05042023_v1.2.cfg,,t,f,t,Responsive,GOOD,Good,48.947435,2.292012,2023-11-06,23:59:47,2023-11-06,23:56:16,2023-11-06,23:59:47
2023-11-07,357544374365092,958aea7d-305f-43bd-ae91-167a308b7abb,MMH24,Material Handler,SENNEBOGEN,835M-E,EXCAVATOR,CEMEX S.A.B. de C.V. ,Gennevilliers,Europe/Paris,unallocated,TELTONIKA,2022-04-12,,N/A,0,25378,FMT100,03.27.13.Rev.03,FMT100_STDCFG_05042023_v1.2.cfg,,t,f,t,Responsive,GOOD,Good,48.93076,2.340998,2023-11-06,23:59:36,2023-11-06,23:55:34,2023-11-06,23:59:36
2023-11-07,350612075418044,b956f3e6-d160-4785-a5a4-6f46f9b56a32,MTH55,BOBCAT TELESCO GENNEVILLIERS,OTHER,BOBCAT T41.140SLPRB,TELEHANDLER,CEMEX S.A.B. de C.V. ,Gennevilliers,Europe/Paris,unallocated,TELTONIKA,2023-10-10,,N/A,0,12603,FMT100,03.27.13.Rev.03,GCF355_202208120816.cfg,,t,f,t,Responsive,GOOD,Good,48.949023,2.292775,2023-11-06,23:59:31,2023-11-06,23:53:30,2023-11-06,23:59:31
2023-11-07,357544374705164,bc516498-999a-4aa0-ad88-44b17466b281,MEX155,EXCAVATOR,VOLVO,EC300ENL,EXCAVATOR,CEMEX S.A.B. de C.V. ,Gennevilliers,Europe/Paris,unallocated,TELTONIKA,2022-01-21,,N/A,0,26106,FMT100,03.27.13.Rev.03,FMT100_STDCFG_05042023_v1.2.cfg,,t,f,t,Responsive,GOOD,Good,48.948853,2.292403,2023-11-06,23:59:40,2023-11-06,23:50:09,2023-11-06,23:59:40
2023-11-07,357544374364681,c71057f2-ed0d-4c55-82fe-2aa35e66444c,MWL1215 - 450DL DOOSAN Gennevilliers,WHEEL LOADER,DOOSAN,450DL,WHEELED_LOADER,CEMEX S.A.B. de C.V. ,Gennevilliers,Europe/Paris,unallocated,TELTONIKA,2023-01-08,,N/A,0,0,FMT100,03.25.18.Rev.08,20210126122900_always_on_calibrate_once.cfg,,t,f,t,Unresponsive,DISCONNECTED,Unknown,48.75298,1.92808,2023-11-06,15:34:21,,,2022-01-21,09:37:29
2023-11-07,862315060780565,e5f706dc-b17b-4704-97d4-2157b07fdc14,MMH14 - LH40 Gennevilliers ,Material Handler,LIEBHERR,LH40M,EXCAVATOR,CEMEX S.A.B. de C.V. ,Gennevilliers,Europe/Paris,unallocated,MAX ACW,2023-01-20,,98,3031,0,CELLULAR,V1.8.48-A,Normal operation,Normal operation,t,f,f,Responsive,GOOD,N/A,48.949142,2.293726,2023-11-06,12:01:04,2023-11-06,17:13:31,2023-11-06,17:13:31
2023-11-07,357544374365993,e5f706dc-b17b-4704-97d4-2157b07fdc14,MMH14 - LH40 Gennevilliers ,Material Handler,LIEBHERR,LH40M,EXCAVATOR,CEMEX S.A.B. de C.V. ,Gennevilliers,Europe/Paris,unallocated,TELTONIKA,2023-01-20,,N/A,0,0,FMT100,03.27.10.Rev.02,20210126122900_always_on_calibrate_once.cfg,,f,f,t,Unresponsive,DISCONNECTED,Unknown,48.949142,2.293726,2023-11-06,12:01:04,2023-11-06,17:13:31,2022-02-01,06:46:20
2023-11-07,868963040276081,fc3f3487-a5b6-485b-b74d-6b72809f30d6,MMH26 LH40MP," Pelle Portuaires,Liebherr,LH40MP",LIEBHERR,LH40 MP,MATERIAL_HANDLER,CEMEX S.A.B. de C.V. ,Gennevilliers,Europe/Paris,unallocated,MAX ACW,2023-07-19,,99.2,3012,0,CELLULAR,V1.8.48-A,Normal operation,Normal operation,t,f,t,Responsive,GOOD,N/A,48.948742,2.293818,2023-11-06,18:18:40,2023-11-06,22:34:39,2023-11-06,22:34:39
2023-11-07,350612075418184,a76ef184-3d02-46eb-948f-45d9c0ab9255,[Lincoln] M00L918,Volvo L90H,VOLVO,L90H,WHEELED_LOADER,CEMEX S.A.B. de C.V. ,Lincoln,Europe/London,unallocated,TELTONIKA,2023-06-08,,N/A,0,25817,FMT100,03.27.13.Rev.03,GCF355_202208120816.cfg,,t,f,t,Responsive,GOOD,Good,53.231808,-0.500303,2023-11-06,23:59:51,2023-11-06,23:50:50,2023-11-06,23:59:51
2023-11-07,357544374365241,7d4ca88d-64be-471f-894a-3fdc45dcad7c,MMH21 Bis,Liebherr A934B Bercy,LIEBHERR,A934B,MATERIAL_HANDLER,CEMEX S.A.B. de C.V. ,Bercy,Europe/Paris,unallocated,TELTONIKA,2023-01-01,,N/A,0,25663,FMT100,03.27.13.Rev.03,FMT100_STDCFG_20042023_v1.3.cfg,,t,f,t,Responsive,GOOD,Good,48.837602,2.376428,2023-11-06,23:59:40,2023-11-06,23:57:41,2023-11-06,23:59:40
2023-11-07,350612075375954,abfbff15-54b3-4e14-9faa-be43e06b95fa,MWL624,ATLAS 65 Bercy,ATLAS,65,WHEELED_LOADER,CEMEX S.A.B. de C.V. ,Bercy,Europe/Paris,unallocated,TELTONIKA,2023-10-09,,N/A,0,12694,FMT100,03.27.13.Rev.03,GCF355_202208120816.cfg,,t,f,t,Responsive,GOOD,Good,48.837793,2.376312,2023-11-06,23:59:52,2023-11-06,23:54:52,2023-11-06,23:59:52
2023-11-07,860536043169566,315de9a3-5b5a-4298-8415-9c586d9d4438,MMH12 - LH40 Evry,Material Handler,LIEBHERR,LH40M,EXCAVATOR,CEMEX S.A.B. de C.V. ,Evry,Europe/Paris,unallocated,MAX ACW,2023-01-23,,68.1,2898,0,CELLULAR,V1.5.37-B,Normal operation,Normal operation,t,f,f,Responsive,GOOD,N/A,48.629605,2.46133,2023-11-06,23:59:54,2023-11-06,22:00:27,2023-11-06,22:00:27
2023-11-07,357544374388771,315de9a3-5b5a-4298-8415-9c586d9d4438,MMH12 - LH40 Evry,Material Handler,LIEBHERR,LH40M,EXCAVATOR,CEMEX S.A.B. de C.V. ,Evry,Europe/Paris,unallocated,TELTONIKA,2023-01-23,,N/A,0,25111,FMT100,03.27.13.Rev.03,FMT100_STDCFG_20042023_v1.3.cfg,,f,f,t,Responsive,GOOD,Low,48.629605,2.46133,2023-11-06,23:59:54,2023-11-06,22:00:27,2023-11-06,23:59:54
2023-11-07,350612075425247,5ef80688-73ec-4b5f-bf0c-fedb663c482a,MWL897,Volvo L60 Evry,VOLVO,L60EV,WHEELED_LOADER,CEMEX S.A.B. de C.V. ,Evry,Europe/Paris,unallocated,TELTONIKA,2023-09-12,,N/A,0,12724,FMT100,03.27.13.Rev.03,GCF355_202208120816.cfg,,t,f,t,Responsive,GOOD,Good,48.629517,2.461115,2023-11-06,23:59:57,2023-11-06,23:51:56,2023-11-06,23:59:57
2023-11-07,357544374692560,e7c1b911-9c34-423d-8389-83294fb6732c,MMH31 - A934C Evry,Material Handler,LIEBHERR,A934 C LITRONIC,EXCAVATOR,CEMEX S.A.B. de C.V. ,Evry,Europe/Paris,unallocated,TELTONIKA,2022-04-12,,N/A,0,25563,FMT100,03.27.13.Rev.03,FMT100_STDCFG_05042023_v1.2.cfg,,t,f,t,Responsive,GOOD,Good,48.830192,2.383142,2023-11-06,23:59:29,2023-11-06,23:58:59,2023-11-06,23:59:29
2023-11-07,350612075409506,10f10e24-da85-4259-8b90-99fd4f4e039f,[Stourton] M00L086,Stourton Volvo L150H,VOLVO,L150H,WHEELED_LOADER,CEMEX S.A.B. de C.V. ,Stourton,Europe/London,unallocated,TELTONIKA,2023-05-15,,N/A,0,12474,FMT100,03.27.13.Rev.03,GCF355_202208120816.cfg,,t,f,t,Responsive,GOOD,Good,53.769125,-1.506045,2023-11-06,23:59:48,2023-11-06,23:46:47,2023-11-06,23:59:48
2023-11-07,350612075416105,d0f1c24d-057d-46ca-93d8-a6985c2644c4,[Stourton] M00L185,Stourton CAT 966M,CATERPILLAR,966M,WHEELED_LOADER,CEMEX S.A.B. de C.V. ,Stourton,Europe/London,unallocated,TELTONIKA,2023-05-15,,N/A,0,12704,FMT100,03.27.13.Rev.03,GCF355_202208120816.cfg,,t,f,t,Responsive,GOOD,Good,53.769332,-1.507862,2023-11-06,23:59:51,2023-11-06,23:58:51,2023-11-06,23:59:51
2023-11-07,350612075416121,1618758f-8e81-4747-9a23-b3b76bf7bf77,MMH13 - A934,Liebherr A934 ,LIEBHERR,A934,MATERIAL_HANDLER,CEMEX S.A.B. de C.V. ,Tolbiac,Europe/Paris,unallocated,TELTONIKA,2023-09-11,,N/A,0,24244,FMT100,03.27.13.Rev.03,GCF355_202208120816.cfg,,t,f,t,Responsive,GOOD,Good,48.705008,2.398965,2023-11-06,23:59:40,2023-11-06,23:54:10,2023-11-06,23:59:40
2023-11-07,350612075409001,47b43d81-b474-4de0-a393-a32183388efe,MWL1308 L524Z,Chargeur Liebherr L524Z,LIEBHERR,L524Z,WHEELED_LOADER,CEMEX S.A.B. de C.V. ,Tolbiac,Europe/Paris,unallocated,TELTONIKA,2023-07-20,,N/A,0,25852,FMT100,03.27.13.Rev.03,GCF355_202208120816.cfg,,t,f,t,Responsive,GOOD,Good,48.83119,2.382077,2023-11-06,23:59:54,2023-11-06,23:50:53,2023-11-06,23:59:54
2023-11-07,867035049892118,aec8fba1-41c4-4cca-8bdd-25bf49e25512,MMH10 - LH40M Tolbiac (ancienne),Material Handler,LIEBHERR,LH40M,EXCAVATOR,CEMEX S.A.B. de C.V. ,Tolbiac,Europe/Paris,unallocated,MAX ACW,2023-01-24,,68.1,2828,0,CELLULAR,V1.5.37-B,Normal operation,Normal operation,t,f,f,Responsive,GOOD,N/A,48.831195,2.381987,2023-11-06,23:59:47,2023-11-06,23:56:05,2023-11-06,23:56:05
2023-11-07,357544374692024,aec8fba1-41c4-4cca-8bdd-25bf49e25512,MMH10 - LH40M Tolbiac (ancienne),Material Handler,LIEBHERR,LH40M,EXCAVATOR,CEMEX S.A.B. de C.V. ,Tolbiac,Europe/Paris,unallocated,TELTONIKA,2023-01-24,,N/A,0,25648,FMT100,03.27.13.Rev.03,FMT100_STDCFG_20042023_v1.3.cfg,,f,f,t,Responsive,GOOD,Good,48.831195,2.381987,2023-11-06,23:59:47,2023-11-06,23:56:05,2023-11-06,23:59:47
2023-11-07,350612075409431,6ca13960-44df-4fbe-a873-65a5e6ee2322,[Nottingham] MWL1256,Nottingham Doosan,DOOSAN,DL250,WHEELED_LOADER,CEMEX S.A.B. de C.V. ,Nottingham,Europe/London,unallocated,TELTONIKA,2023-06-08,,N/A,0,12532,FMT100,03.27.13.Rev.03,GCF355_202208120816.cfg,,t,f,t,Responsive,GOOD,Good,52.955387,-1.063322,2023-11-06,23:59:47,2023-11-06,23:56:47,2023-11-06,23:59:47
2023-11-07,350612075409100,0c35631d-eebe-40e1-b454-e66a435c5ec8,MMH22,ATLAS TEREX 284S301959,ATLAS,1804,MATERIAL_HANDLER,CEMEX S.A.B. de C.V. ,Athis Mons,Europe/Paris,unallocated,TELTONIKA,2023-09-12,,N/A,0,24729,FMT100,03.27.13.Rev.03,GCF355_202208120816.cfg,,t,f,t,Responsive,GOOD,Good,48.737185,2.77588,2023-11-06,23:59:28,2023-11-06,23:50:57,2023-11-06,23:59:28
2023-11-07,350612075375947,15bcfdf7-87d7-4483-b73c-e0695f4a0e48,MMH27,ATLAS 1604 - 261S301728,ATLAS,1604,MATERIAL_HANDLER,CEMEX S.A.B. de C.V. ,Athis Mons,Europe/Paris,unallocated,TELTONIKA,2023-10-19,,N/A,0,12335,FMT100,03.27.13.Rev.03,GCF355_202208120816.cfg,,t,f,t,Responsive,GOOD,Good,48.704963,2.398938,2023-11-06,23:59:35,2023-11-06,23:53:34,2023-11-06,23:59:35
2023-11-07,350612075425833,2d11753b-2ff9-4ae1-83ef-c8a35fde23ef,MMH4,ATLAS 1804 - 283S6732,ATLAS,1804,MATERIAL_HANDLER,CEMEX S.A.B. de C.V. ,Athis Mons,Europe/Paris,unallocated,TELTONIKA,2023-09-11,,N/A,0,24684,FMT100,03.27.13.Rev.03,GCF355_202208120816.cfg,,t,f,t,Responsive,GOOD,Good,48.70497,2.398912,2023-11-06,23:59:28,2023-11-06,23:53:57,2023-11-06,23:59:28
2023-11-07,350612075416287,76dd7a6b-519e-48f8-bd7f-da2a7c3866f4,MWL648,CATERPILLAR 950H,CATERPILLAR,950H,WHEELED_LOADER,CEMEX S.A.B. de C.V. ,Athis Mons,Europe/Paris,unallocated,TELTONIKA,2023-09-11,,N/A,0,25471,FMT100,03.27.13.Rev.03,GCF355_202208120816.cfg,,t,f,t,Responsive,GOOD,Good,48.70502,2.399295,2023-11-06,23:59:33,2023-11-06,23:55:03,2023-11-06,23:59:33
2023-11-07,350612075414225,77c240c8-e843-48f0-9477-ae6598102e37,MWL894,VOLVO L50E 071493,VOLVO,L50E,WHEELED_LOADER,CEMEX S.A.B. de C.V. ,Athis Mons,Europe/Paris,unallocated,TELTONIKA,2023-09-11,,N/A,0,24413,FMT100,03.27.13.Rev.03,GCF355_202208120816.cfg,,t,f,t,Responsive,GOOD,Good,48.704798,2.399043,2023-11-06,23:59:40,2023-11-06,23:52:09,2023-11-06,23:59:40
2023-11-07,862315069884731,960294a0-bc49-4c08-a3aa-bb92ad027c8d,MMH34 - Athis-Mons Quai,Material Handler,LIEBHERR,LH30M,EXCAVATOR,CEMEX S.A.B. de C.V. ,Athis Mons,Europe/Paris,unallocated,MAX ACW,2023-10-12,,99.6,3007,0,CELLULAR,V1.8.48-A,Normal operation,Normal operation,t,f,f,Responsive,GOOD,N/A,48.705685,2.401618,2023-11-06,12:01:03,2023-11-06,19:56:52,2023-11-06,19:56:52
2023-11-07,357544372584876,960294a0-bc49-4c08-a3aa-bb92ad027c8d,MMH34 - Athis-Mons Quai,Material Handler,LIEBHERR,LH30M,EXCAVATOR,CEMEX S.A.B. de C.V. ,Athis Mons,Europe/Paris,unallocated,TELTONIKA,2023-01-23,,N/A,3809,0,FMT100,03.27.13.Rev.03,20210126122900_always_on_calibrate_once.cfg,,f,f,t,Unresponsive,DISCONNECTED,Good,48.705685,2.401618,2023-11-06,12:01:03,2023-11-06,19:56:52,2023-10-12,07:50:30
2023-11-07,868963040347825,a7304e4e-2a6b-412b-acc3-189e3ef27013,MMH11 - LH40 Point du Jour,Material Handler,LIEBHERR,LH40M,EXCAVATOR,CEMEX S.A.B. de C.V. ,Point Du Jour,Europe/Paris,unallocated,MAX ACW,2023-08-01,,98.4,3032,0,CELLULAR,V1.8.48-A,Normal operation,Normal operation,t,f,f,Responsive,GOOD,N/A,48.83728,2.265398,2023-11-06,23:59:54,2023-11-06,21:48:07,2023-11-06,21:48:07
2023-11-07,357544374692016,a7304e4e-2a6b-412b-acc3-189e3ef27013,MMH11 - LH40 Point du Jour,Material Handler,LIEBHERR,LH40M,EXCAVATOR,CEMEX S.A.B. de C.V. ,Point Du Jour,Europe/Paris,unallocated,TELTONIKA,2023-08-01,,N/A,0,25228,FMT100,03.27.13.Rev.03,FMT100_STDCFG_20042023_v1.3.cfg,,f,f,t,Responsive,GOOD,Good,48.83728,2.265398,2023-11-06,23:59:54,2023-11-06,21:48:07,2023-11-06,23:59:54
2023-11-07,357544374388680,b65b13a2-5842-4cb9-9740-46696f2b476a,MMH32 - A934C Point du Jour,Material Handler,LIEBHERR,A934 C LITRONIC,EXCAVATOR,CEMEX S.A.B. de C.V. ,Point Du Jour,Europe/Paris,unallocated,TELTONIKA,2022-04-12,,N/A,0,25354,FMT100,03.27.13.Rev.03,FMT100_STDCFG_05042023_v1.2.cfg,,t,f,t,Responsive,GOOD,Good,48.836803,2.264737,2023-11-06,23:59:54,2023-11-06,23:51:23,2023-11-06,23:59:54
2023-11-07,357544372529756,c19ca5dc-cecd-4735-ae82-bc83c3256131,MMH19 - LH40 84549,Material Handler,LIEBHERR,LH40M,EXCAVATOR,CEMEX S.A.B. de C.V. ,Point Du Jour,Europe/Paris,unallocated,TELTONIKA,2023-08-01,,N/A,0,25548,FMT100,03.27.13.Rev.03,FMT100_STDCFG_20042023_v1.3.cfg,,f,f,t,Responsive,GOOD,Good,48.837645,2.26577,2023-11-06,23:59:35,2023-11-06,21:33:39,2023-11-06,23:59:35
2023-11-07,868963040336067,c19ca5dc-cecd-4735-ae82-bc83c3256131,MMH19 - LH40 84549,Material Handler,LIEBHERR,LH40M,EXCAVATOR,CEMEX S.A.B. de C.V. ,Point Du Jour,Europe/Paris,unallocated,MAX ACW,2023-08-01,,97.6,3035,0,CELLULAR,V1.8.48-A,Normal operation,Normal operation,t,f,f,Responsive,GOOD,N/A,48.837645,2.26577,2023-11-06,23:59:35,2023-11-06,21:33:39,2023-11-06,21:33:39
2023-11-07,350612075417962,03d9c9b7-c981-4bdb-a2a5-42b3f7e92519,[Birmingham] M00L127,Volvo L50H,VOLVO,L50E,WHEELED_LOADER,CEMEX S.A.B. de C.V. ,Birmingham,Europe/London,unallocated,TELTONIKA,2023-07-25,,N/A,0,24935,FMT100,03.27.13.Rev.03,GCF355_202208120816.cfg,,t,f,t,Responsive,GOOD,Good,52.478672,-1.861792,2023-11-06,23:59:31,2023-11-06,23:50:00,2023-11-06,23:59:31
2023-11-07,350612075410926,90d1f887-79f4-4f87-8157-b4fd7d1dd9af,[Birmingham] M00L158,Volvo L120C,VOLVO,L120C,WHEELED_LOADER,CEMEX S.A.B. de C.V. ,Birmingham,Europe/London,unallocated,TELTONIKA,2023-06-08,,N/A,0,12765,FMT100,03.27.13.Rev.03,GCF355_202208120816.cfg,,t,f,t,Responsive,GOOD,Good,52.478622,-1.861707,2023-11-06,23:59:52,2023-11-06,23:48:51,2023-11-06,23:59:52
2023-11-07,350612075409498,3e6f3e87-202f-4cde-a8d6-ea39536c8377,[Docklands] M00L092,Volvo L120H,VOLVO,L150H,WHEELED_LOADER,CEMEX S.A.B. de C.V. ,Docklands,Europe/London,unallocated,TELTONIKA,2023-10-05,,N/A,0,13065,FMT100,03.27.13.Rev.03,GCF355_202208120816.cfg,,t,f,t,Responsive,GOOD,Good,53.437337,-2.997737,2023-11-06,23:59:50,2023-11-06,23:50:49,2023-11-06,23:59:50
2023-11-07,350612075409019,b4dcc8ad-1432-4188-8482-df890c801ba4,MMH16,Material Handler,LIEBHERR,A934 HD-LI,MATERIAL_HANDLER,CEMEX S.A.B. de C.V. ,Aubervilliers,Europe/Paris,unallocated,TELTONIKA,2023-09-18,,N/A,0,25458,FMT100,03.27.13.Rev.03,GCF355_202208120816.cfg,,t,f,t,Responsive,GOOD,Good,48.91386,2.372333,2023-11-06,23:59:31,2023-11-06,23:59:31,2023-11-06,23:59:31
2023-11-07,350612075409563,b99819d4-77ea-4b9f-8e67-23f5571fab2e,[Bletchley] MWL1186,Bletchley Komatsu,KOMATSU,WA475-10E0,WHEELED_LOADER,CEMEX S.A.B. de C.V. ,Bletchley,Europe/London,unallocated,TELTONIKA,2023-05-18,,N/A,0,12775,FMT100,03.27.13.Rev.03,GCF355_202208120816.cfg,,t,f,t,Responsive,GOOD,Good,51.996145,-0.735345,2023-11-06,23:59:34,2023-11-06,23:51:33,2023-11-06,23:59:34
2023-11-07,350612075409423,4287f79d-cb50-498b-af7b-42bf006b4b0a,[Selby] MWL1185,Selby Komatsu,KOMATSU,WA380,WHEELED_LOADER,CEMEX S.A.B. de C.V. ,Selby,Europe/London,unallocated,TELTONIKA,2023-05-12,,N/A,0,12690,FMT100,03.27.13.Rev.03,GCF355_202208120816.cfg,,t,f,t,Responsive,GOOD,Good,53.785082,-1.046622,2023-11-06,23:59:55,2023-11-06,23:57:56,2023-11-06,23:59:55
2023-11-07,357544372637922,a4282dff-98d9-4cfd-8f5c-eb51c1fa0059,MMH20,Material Handler,LIEBHERR,LH40,EXCAVATOR,CEMEX S.A.B. de C.V. ,Ivry,Europe/Paris,unallocated,TELTONIKA,2022-04-12,,N/A,0,25958,FMT100,03.27.13.Rev.03,FMT100_STDCFG_05042023_v1.2.cfg,,t,f,t,Responsive,GOOD,Good,48.824823,2.39035,2023-11-06,23:59:57,2023-11-06,23:51:26,2023-11-06,23:59:57
2023-11-07,350544506390197,a6ecd3ec-0195-48d7-b6e4-f3e4df7d3048,MWL1216 - Doosan Ivry,Chargeur Doosan Ivry,DOOSAN,DL220-5,WHEELED_LOADER,CEMEX S.A.B. de C.V. ,Ivry,Europe/Paris,unallocated,TELTONIKA,2023-03-28,,N/A,0,24946,FMT100,03.27.13.Rev.03,FMT100_STDCFG_05042023_v1.2.cfg,,t,f,t,Responsive,GOOD,Good,48.824535,2.390132,2023-11-06,23:59:56,2023-11-06,23:55:56,2023-11-06,23:59:56
2023-11-07,350612075498467,02444276-c2fa-4a47-ae0c-3fbb3c6495b4,HM400-5 no.6,MAD96,KOMATSU,HM400-5,DUMP_TRUCK,CEMEX S.A.B. de C.V. ,CARRIERE DE GUDMONT,Europe/Paris,unallocated,TELTONIKA,2023-10-18,,N/A,0,26040,FMT100,03.27.13.Rev.03,FMT100_24v_STDCFG_11042023_v1.0.cfg,,t,f,t,Responsive,GOOD,Good,48.341637,5.145675,2023-11-06,23:59:33,2023-11-06,23:53:32,2023-11-06,23:59:33
2023-11-07,350612075508349,0e71a50d-ade2-4b3e-94d1-f4d6c69a0152,980K,MWL687,CATERPILLAR,980K,WHEELED_LOADER,CEMEX S.A.B. de C.V. ,CARRIERE DE GUDMONT,Europe/Paris,unallocated,TELTONIKA,2023-10-18,,N/A,0,25639,FMT100,03.27.13.Rev.03,FMT100_24v_STDCFG_11042023_v1.0.cfg,,t,f,t,Responsive,GOOD,Good,48.341557,5.145727,2023-11-06,23:59:53,2023-11-06,23:55:52,2023-11-06,23:59:53
2023-11-07,350612077017000,10a255a4-c8d3-42c8-be10-9bffb6411539,HD785-7 no.2,MRD55,KOMATSU,HD785-7,DUMP_TRUCK,CEMEX S.A.B. de C.V. ,CARRIERE DE GUDMONT,Europe/Paris,unallocated,TELTONIKA,2023-10-18,,N/A,0,25794,FMT100,03.27.13.Rev.03,FMT100_24v_STDCFG_11042023_v1.0.cfg,,t,f,t,Responsive,GOOD,Good,48.344202,5.1463,2023-11-06,23:59:42,2023-11-06,23:56:42,2023-11-06,23:59:42
2023-11-07,350612077133062,3c836097-843b-4abf-8a50-c7db6be97b3e,HM400-5 no.7,MAD97,KOMATSU,HM400-5,DUMP_TRUCK,CEMEX S.A.B. de C.V. ,CARRIERE DE GUDMONT,Europe/Paris,unallocated,TELTONIKA,2023-10-18,,N/A,0,25517,FMT100,03.27.13.Rev.03,FMT100_24v_STDCFG_11042023_v1.0.cfg,,t,f,t,Responsive,GOOD,Good,48.34174,5.145787,2023-11-06,23:59:51,2023-11-06,23:52:51,2023-11-06,23:59:51
2023-11-07,350612075498913,3d3ce965-ab50-469e-8803-80224cc2085e,HD785-7 no.1,MRD54,KOMATSU,HD785-7,DUMP_TRUCK,CEMEX S.A.B. de C.V. ,CARRIERE DE GUDMONT,Europe/Paris,unallocated,TELTONIKA,2023-10-18,,N/A,0,25543,FMT100,03.27.13.Rev.03,FMT100_24v_STDCFG_11042023_v1.0.cfg,,t,f,t,Responsive,GOOD,Good,48.343947,5.146118,2023-11-06,23:59:27,2023-11-06,23:59:27,2023-11-06,23:59:27
2023-11-07,350612075508414,4b77715e-b0cd-41a4-97f8-bcb4e560cf19,HM400-3 no.4,MAD64,KOMATSU,HM400-3,DUMP_TRUCK,CEMEX S.A.B. de C.V. ,CARRIERE DE GUDMONT,Europe/Paris,unallocated,TELTONIKA,2023-10-18,,N/A,0,26000,FMT100,03.27.13.Rev.03,FMT100_24v_STDCFG_11042023_v1.0.cfg,,t,f,t,Responsive,GOOD,Good,48.341448,5.145405,2023-11-06,23:59:37,2023-11-06,23:52:06,2023-11-06,23:59:37
2023-11-07,350612075574960,5001ff57-635c-429e-9b89-ccd1b79af4ff,WA500-8 no.3,MWL865,KOMATSU,WA500-8,WHEELED_LOADER,CEMEX S.A.B. de C.V. ,CARRIERE DE GUDMONT,Europe/Paris,unallocated,TELTONIKA,2023-10-18,,N/A,0,25777,FMT100,03.27.13.Rev.03,FMT100_24v_STDCFG_11042023_v1.0.cfg,,t,f,t,Responsive,GOOD,Low,48.341722,5.145923,2023-11-06,23:59:31,2023-11-06,23:59:01,2023-11-06,23:59:31
2023-11-07,350612075511137,6a66ce76-5c81-49e7-ae73-c00a6707976a,972M,MWL682,CATERPILLAR,972M,WHEELED_LOADER,CEMEX S.A.B. de C.V. ,CARRIERE DE GUDMONT,Europe/Paris,unallocated,TELTONIKA,2023-10-18,,N/A,0,25611,FMT100,03.27.13.Rev.03,FMT100_24v_STDCFG_11042023_v1.0.cfg,,t,f,t,Responsive,GOOD,Good,48.342383,5.145172,2023-11-06,23:59:30,2023-11-06,23:56:30,2023-11-06,23:59:30
2023-11-07,350612075499853,84d711c6-cb4e-4cf8-990a-df61c186661e,PC1250-11,MEX100,KOMATSU,PC1250-11,EXCAVATOR,CEMEX S.A.B. de C.V. ,CARRIERE DE GUDMONT,Europe/Paris,unallocated,TELTONIKA,2023-10-12,,N/A,0,25592,FMT100,03.27.13.Rev.03,FMT100_24v_STDCFG_11042023_v1.0.cfg,,f,f,t,Responsive,GOOD,Good,48.352713,5.157095,2023-11-06,23:59:38,2023-11-06,12:16:57,2023-11-06,23:59:38
2023-11-07,868963040367534,84d711c6-cb4e-4cf8-990a-df61c186661e,PC1250-11,MEX100,KOMATSU,PC1250-11,EXCAVATOR,CEMEX S.A.B. de C.V. ,CARRIERE DE GUDMONT,Europe/Paris,unallocated,MAX ACW,2023-10-12,,99.6,3053,0,CELLULAR,V1.8.48-A,Normal operation,Normal operation,t,f,f,Responsive,GOOD,N/A,48.352713,5.157095,2023-11-06,23:59:38,2023-11-06,12:16:57,2023-11-06,12:16:57
2023-11-07,350612075573640,a8146395-5b2b-4edc-8562-d0f8920a53ee,HM400-3 no.5,MAD61,KOMATSU,HM400-3,DUMP_TRUCK,CEMEX S.A.B. de C.V. ,CARRIERE DE GUDMONT,Europe/Paris,unallocated,TELTONIKA,2023-10-18,,N/A,0,25120,FMT100,03.27.13.Rev.03,FMT100_24v_STDCFG_11042023_v1.0.cfg,,t,f,t,Responsive,GOOD,Good,48.34149,5.145413,2023-11-06,23:59:52,2023-11-06,23:47:51,2023-11-06,23:59:52
2023-11-07,350612075507010,a93454a8-a152-48e0-abc8-d73746cf1051,WA500-8 no.4,MWL863,KOMATSU,WA500-8,WHEELED_LOADER,CEMEX S.A.B. de C.V. ,CARRIERE DE GUDMONT,Europe/Paris,unallocated,TELTONIKA,2023-10-18,,N/A,0,26021,FMT100,03.27.13.Rev.03,FMT100_24v_STDCFG_11042023_v1.0.cfg,,t,f,t,Responsive,GOOD,Good,48.341793,5.145888,2023-11-06,23:59:33,2023-11-06,23:53:34,2023-11-06,23:59:33
2023-11-07,350612075573772,d2325dc4-fc7d-47a3-83d4-240ce5a5d9bc,WA500-6 no.1,MWL768,KOMATSU,WA500-6,WHEELED_LOADER,CEMEX S.A.B. de C.V. ,CARRIERE DE GUDMONT,Europe/Paris,unallocated,TELTONIKA,2023-10-18,,N/A,0,24915,FMT100,03.27.13.Rev.03,GCF355_202208120816.cfg,,t,f,t,Responsive,GOOD,Good,48.341548,5.14565,2023-11-06,23:59:57,2023-11-06,23:53:26,2023-11-06,23:59:57
2023-11-07,350612075508422,d47a0c58-0e0d-48e7-8d42-ecf722df0611,HD405-7 no.2,MRD59,KOMATSU,HD405-7,DUMP_TRUCK,CEMEX S.A.B. de C.V. ,CARRIERE DE GUDMONT,Europe/Paris,unallocated,TELTONIKA,2023-09-27,,N/A,0,25211,FMT100,03.27.13.Rev.03,FMT100_24v_STDCFG_11042023_v1.0.cfg,,t,f,t,Responsive,GOOD,Good,48.341493,5.145563,2023-11-06,23:59:36,2023-11-06,23:58:06,2023-11-06,23:59:36
2023-11-07,350612075575496,f4408479-4144-4204-9cec-75a3177c9060,HM400-3 no.3,MAD65,KOMATSU,HM400-3,DUMP_TRUCK,CEMEX S.A.B. de C.V. ,CARRIERE DE GUDMONT,Europe/Paris,unallocated,TELTONIKA,2023-10-18,,N/A,0,25698,FMT100,03.27.13.Rev.03,FMT100_24v_STDCFG_11042023_v1.0.cfg,,t,f,t,Responsive,GOOD,Good,48.341712,5.145725,2023-11-06,23:59:47,2023-11-06,23:53:46,2023-11-06,23:59:47
2023-11-07,350612075409571,f0298d6d-85f2-400f-a62b-85b31c918f2c,[Preston] MWL1255,Preston Doosan,DOOSAN,DL220,WHEELED_LOADER,CEMEX S.A.B. de C.V. ,Preston,Europe/London,unallocated,TELTONIKA,2023-09-13,,N/A,0,12474,FMT100,03.27.13.Rev.03,GCF355_202208120816.cfg,,t,f,t,Responsive,GOOD,Good,53.780938,-2.642345,2023-11-06,23:59:52,2023-11-06,23:59:22,2023-11-06,23:59:52
2023-11-07,357544372472437,51d5e94c-9a50-4410-966e-e5f2b941a0dd,Vautour,Pushboat ,OTHER,,OTHER,CEMEX S.A.B. de C.V. ,Barges,Europe/Paris,unallocated,TELTONIKA,2023-08-16,,N/A,0,0,FMT100,03.27.13.Rev.03,FMT100_24v_STDCFG_11042023_v1.0.cfg,,t,f,t,Unresponsive,DISCONNECTED,Good,48.733447,2.4353,2023-10-31,13:43:07,2023-10-31,13:40:06,2023-10-31,13:43:07
2023-11-07,357544374692263,9219a52f-c5d8-491d-909a-180873375217,Busard,Pushboat ,OTHER,,OTHER,CEMEX S.A.B. de C.V. ,Barges,Europe/Paris,unallocated,TELTONIKA,2023-02-03,,N/A,0,0,FMT100,03.27.13.Rev.03,FMT100_24v_STDCFG_11042023_v1.0.cfg,,t,f,t,Responsive,DISCONNECTED,Good,48.836885,2.265023,2023-11-06,16:09:54,2023-11-06,16:06:24,2023-11-06,16:09:54
2023-11-07,352625696341682,9acb6fde-489b-4f43-85bc-df873c9f08a4,Emerillon,Pushboat,OTHER,,OTHER,CEMEX S.A.B. de C.V. ,Barges,Europe/Paris,unallocated,TELTONIKA,2023-05-01,,N/A,0,0,FMT100,03.27.13.Rev.03,FMT100_24v_STDCFG_11042023_v1.0.cfg,,t,f,t,Unresponsive,DISCONNECTED,Good,48.733542,2.435508,2023-10-27,14:28:14,2023-10-27,14:24:14,2023-10-27,14:28:14
2023-11-07,357544372472411,e63bc308-04c4-49af-b1ec-4d6b637754c6,Aigle,Pushboat,OTHER,,OTHER,CEMEX S.A.B. de C.V. ,Barges,Europe/Paris,unallocated,TELTONIKA,2023-10-09,,N/A,0,0,FMT100,03.27.13.Rev.03,FMT100_STDCFG_20042023_v1.3.cfg,,t,f,t,Responsive,DISCONNECTED,Low,48.389228,3.072767,2023-11-06,18:48:26,2023-11-06,18:48:26,2023-11-06,19:14:46
2023-11-07,352625697571782,6f02b853-ebe8-4499-a2cd-016de3689c74,MAG3,Tracteur 6170R,JOHN_DEERE,6170R,TRACTOR,CEMEX S.A.B. de C.V. ,Anneville,Europe/Paris,unallocated,TELTONIKA,2022-10-17,,N/A,0,0,FMT100,03.27.13.Rev.03,FMT100_STDCFG_05042023_v1.2.cfg,,t,f,t,Unresponsive,DISCONNECTED,Low,49.451197,0.877688,2023-05-09,08:27:32,2023-05-09,08:24:47,2023-05-09,08:27:32
2023-11-07,354018118813462,7bca87bd-add9-4d1e-92b8-d8ba7c92ebbe,MWL1487,WA475,KOMATSU,WA475,WHEELED_LOADER,CEMEX S.A.B. de C.V. ,Anneville,Europe/Paris,unallocated,TELTONIKA,2022-10-17,,N/A,0,12783,FMT100,03.27.13.Rev.03,FMT100_STDCFG_05042023_v1.2.cfg,,t,f,t,Responsive,GOOD,Low,49.451513,0.878112,2023-11-06,23:58:27,2023-11-06,23:38:54,2023-11-06,23:58:27
2023-11-07,357544372059515,aa4c51d9-7ad3-4aa2-9588-081b8ce02a09,MLW186,WA 470,KOMATSU,WA 470,WHEELED_LOADER,CEMEX S.A.B. de C.V. ,Anneville,Europe/Paris,unallocated,TELTONIKA,2022-11-16,,N/A,0,0,FMT100,03.27.13.Rev.03,FMT100_STDCFG_05042023_v1.2.cfg,,t,f,t,Unresponsive,DISCONNECTED,Low,49.451058,0.877807,2023-05-09,08:17:00,2023-05-09,08:06:09,2023-05-09,08:17:00
2023-11-07,352625696635620,c0584721-8b19-4bdf-a634-f078ead7671f,MTH97,TH414,CATERPILLAR,TH414,TELEHANDLER,CEMEX S.A.B. de C.V. ,Anneville,Europe/Paris,unallocated,TELTONIKA,2022-10-17,,N/A,0,0,FMT100,03.27.13.Rev.03,FMT100_STDCFG_05042023_v1.2.cfg,,t,f,t,Unresponsive,DISCONNECTED,Good,49.451255,0.877923,2023-05-09,08:12:39,2023-05-09,07:54:14,2039-05-17,23:13:09
2023-11-07,352625696666120,c35875b2-104c-47a6-9dfa-0994cfc3938d,MTH11,MS125T,MANITOU,MS125T,TELEHANDLER,CEMEX S.A.B. de C.V. ,Anneville,Europe/Paris,unallocated,TELTONIKA,2022-10-17,,N/A,0,0,FMT100,03.27.13.Rev.03,FMT100_STDCFG_05042023_v1.2.cfg,,t,f,t,Unresponsive,DISCONNECTED,Low,49.449388,0.878262,2023-05-09,08:45:57,2023-05-09,08:42:10,2061-03-25,16:32:15
2023-11-07,352625695995520,e39fa757-52b5-412b-a3e1-725c7ba7de09,MWL188,972 M,CATERPILLAR,972M,WHEELED_LOADER,CEMEX S.A.B. de C.V. ,Anneville,Europe/Paris,unallocated,TELTONIKA,2022-11-15,,N/A,3963,27913,FMT100,03.27.10.Rev.02,20210126122900_always_on_calibrate_once.cfg,,t,f,t,Unresponsive,GOOD,Unknown,49.450948,0.878325,2022-11-16,06:26:28,2022-11-16,06:24:43,2022-11-16,06:26:28
2023-11-07,352625698558044,d25238f8-ca87-49a5-9f60-c19928699a88,39883,HITACHI  ZX135US-7-2P-BL  2022B,HITACHI,ZX135US-7-2P-BL,EXCAVATOR,DE SMEDT BV,default,Europe/Brussels,unallocated,TELTONIKA,2023-06-01,,N/A,3939,25694,FMT100,03.27.13.Rev.03,20210126122900_always_on_calibrate_once.cfg,,t,f,t,Responsive,GOOD,Good,51.205765,4.144178,2023-11-06,23:59:38,2023-11-06,23:52:07,2023-11-06,23:59:38
2023-11-07,357544372167649,0aed7df1-4c0d-4fb2-b04e-cf77e7d2f4d9,39638,KUBOTA  KX037-4 KGLS2  2022C,KUBOTA,KX037-4 KGLS2,EXCAVATOR,STOOP PROJECTS BVBA,default,Europe/Brussels,unallocated,TELTONIKA,2023-08-02,,N/A,0,12604,FMT100,03.27.13.Rev.03,FMT100_STDCFG_20042023_v1.3.cfg,,t,f,t,Responsive,GOOD,Good,51.198308,4.22901,2023-11-06,23:59:40,2023-11-06,23:52:10,2023-11-06,23:59:40
2023-11-07,352625698568894,64f6a981-08d5-4b28-8b48-eec5682762cc,39636,KUBOTA  KX037-4 KGLS2  2022C,KUBOTA,KX037-4 KGLS2,EXCAVATOR,STOOP PROJECTS BVBA,default,Europe/Brussels,unallocated,TELTONIKA,2023-07-20,,N/A,3354,5476,FMT100,03.27.13.Rev.03,20210126122900_always_on_calibrate_once.cfg,,t,f,t,Unresponsive,GOOD,Good,51.198282,4.229145,2023-09-01,04:13:59,2023-09-01,04:07:28,2023-09-01,04:13:59
2023-11-07,350424060060686,d0db10cf-5a32-4430-81f0-441c8492756e,36273,HITACHI  ZX210LC-6-2P  2020A,HITACHI,ZX210LC-6-2P,EXCAVATOR,STOOP PROJECTS BVBA,default,Europe/Brussels,unallocated,TELTONIKA,2022-10-06,,N/A,0,25624,FMT100,03.27.13.Rev.03,FMT100_STDCFG_05042023_v1.2.cfg,,t,f,t,Responsive,GOOD,Good,51.121408,4.0168,2023-11-06,23:59:56,2023-11-06,23:58:26,2023-11-06,23:59:56
2023-11-07,357544370219152,d3cda89f-55fb-4a3a-850c-cd6a0ec5e362,39637,KUBOTA  KX037-4 KGLS2  2022C,KUBOTA,KX037-4 KGLS2,EXCAVATOR,STOOP PROJECTS BVBA,default,Europe/Brussels,unallocated,TELTONIKA,2023-08-01,,N/A,4015,12797,FMT100,03.27.13.Rev.443,20210126122900_always_on_calibrate_once.cfg,,t,f,t,Responsive,GOOD,Good,51.069482,4.35098,2023-11-06,23:59:41,2023-11-06,23:59:41,2023-11-06,23:59:41
2023-11-07,350612075563682,141a893f-f179-4da3-be6e-2b0404a07701,PH763,VOLVO L70H,VOLVO,,WHEELED_LOADER,British Sugar,Wissington,Europe/London,unallocated,TELTONIKA,2023-06-12,,N/A,0,28576,FMT100,03.27.13.Rev.03,GCF355_202208120816.cfg,,t,f,t,Responsive,GOOD,Low,52.576535,1.519263,2023-11-06,23:59:58,2023-11-06,23:51:58,2023-11-06,23:59:58
2023-11-07,357544370169522,1a7fd67d-99f9-42c5-a445-9868393123af,PH760,VOLVO L90H LOADING SHOVEL,VOLVO,,WHEELED_LOADER,British Sugar,Wissington,Europe/London,unallocated,TELTONIKA,2023-06-13,,N/A,0,26172,FMT100,03.27.13.Rev.03,FMT100_STDCFG_20042023_v1.3.cfg,,t,f,t,Responsive,GOOD,Good,52.55184,0.44469,2023-11-06,23:59:36,2023-11-06,23:47:06,2023-11-06,23:59:36
2023-11-07,350612075424869,1fc20894-9a19-4789-bcb8-40a1c91f354f,PH875,DOOSAN DX225,DOOSAN,,EXCAVATOR,British Sugar,Wissington,Europe/London,unallocated,TELTONIKA,2023-06-14,,N/A,0,25569,FMT100,03.27.13.Rev.03,GCF355_202208120816.cfg,,f,f,t,Responsive,GOOD,Good,53.089673,-0.81187,2023-11-06,23:59:57,2023-11-06,22:19:22,2023-11-06,23:59:57
2023-11-07,868963040276818,1fc20894-9a19-4789-bcb8-40a1c91f354f,PH875,DOOSAN DX225,DOOSAN,,EXCAVATOR,British Sugar,Wissington,Europe/London,unallocated,MAX ACW,2023-06-14,,99.2,2998,0,CELLULAR,V1.8.48-A,Normal operation,Normal operation,t,f,f,Responsive,GOOD,N/A,53.089673,-0.81187,2023-11-06,23:59:57,2023-11-06,22:19:22,2023-11-06,22:19:22
2023-11-07,350612075332039,2169d0ce-a197-481c-8d73-b6f8fc6a74af,PH896,DOOSAN DX225,DOOSAN,,EXCAVATOR,British Sugar,Wissington,Europe/London,unallocated,TELTONIKA,2023-06-17,,N/A,0,13000,FMT100,03.27.13.Rev.03,GCF355_202208120816.cfg,,f,f,t,Responsive,GOOD,Good,52.578258,1.522395,2023-11-06,23:59:37,2023-11-06,18:16:00,2023-11-06,23:59:37
2023-11-07,868963040426926,2169d0ce-a197-481c-8d73-b6f8fc6a74af,PH896,DOOSAN DX225,DOOSAN,,EXCAVATOR,British Sugar,Wissington,Europe/London,unallocated,MAX ACW,2023-06-16,,99.6,3014,0,CELLULAR,V1.8.48-A,Normal operation,Normal operation,t,f,f,Responsive,GOOD,N/A,52.578258,1.522395,2023-11-06,23:59:37,2023-11-06,18:16:00,2023-11-06,18:16:00
2023-11-07,350612075531606,263e00d4-42af-4d1a-9e13-f0a8d4c2bf29,PH468,JOHN DEERE 6155M,JOHN_DEERE,,TRACTOR,British Sugar,Wissington,Europe/London,unallocated,TELTONIKA,2023-06-17,,N/A,0,28485,FMT100,03.27.13.Rev.03,GCF355_202208120816.cfg,,t,f,t,Responsive,GOOD,Good,52.25638,0.726993,2023-11-06,23:59:56,2023-11-06,23:49:55,2023-11-06,23:59:56
2023-11-07,862315066523290,2e5f4de1-2cb9-4b2d-9c08-77bb79c27ece,PH615,KOBELCO SK210,KOBELCO,,EXCAVATOR,British Sugar,Wissington,Europe/London,unallocated,MAX ACW,2023-06-15,,98.8,3031,0,CELLULAR,V1.8.48-A,Normal operation,Normal operation,t,f,f,Responsive,GOOD,N/A,52.560812,0.444958,2023-11-06,23:59:54,2023-11-06,17:52:15,2023-11-06,17:58:30
2023-11-07,350612075563849,2e5f4de1-2cb9-4b2d-9c08-77bb79c27ece,PH615,KOBELCO SK210,KOBELCO,,EXCAVATOR,British Sugar,Wissington,Europe/London,unallocated,TELTONIKA,2023-06-16,,N/A,0,26032,FMT100,03.27.13.Rev.03,GCF355_202208120816.cfg,,f,f,t,Responsive,GOOD,Good,52.560812,0.444958,2023-11-06,23:59:54,2023-11-06,17:52:15,2023-11-06,23:59:54
2023-11-07,357544370123511,33478f11-7666-4fb5-9d25-b08b5adcfc50,PH751,VOLVO L90H LOADING SHOVEL,VOLVO,,WHEELED_LOADER,British Sugar,Wissington,Europe/London,unallocated,TELTONIKA,2023-06-29,,N/A,0,28489,FMT100,03.27.13.Rev.03,FMT100_STDCFG_05042023_v1.2.cfg,,t,f,t,Responsive,GOOD,Good,52.551147,0.446525,2023-11-06,23:48:12,2023-11-06,23:46:27,2023-11-06,23:48:12
2023-11-07,357544370207256,3978f867-6b15-4103-98b0-14b81b0d1ce9,PH705,VOLVO L90H LOADING SHOVEL,VOLVO,,WHEELED_LOADER,British Sugar,Wissington,Europe/London,unallocated,TELTONIKA,2023-07-07,,N/A,0,25962,FMT100,03.27.10.Rev.02,FMT100_STDCFG_20042023_v1.3.cfg,,t,f,t,Responsive,GOOD,Low,52.560405,0.443127,2023-11-06,23:59:51,2023-11-06,23:49:50,2023-11-06,23:59:51
2023-11-07,868963040377327,50dbfb9c-f32c-4f8a-acb0-4d6bc9f05c78,PH901,DOOSAN DX225,DOOSAN,,EXCAVATOR,British Sugar,Wissington,Europe/London,unallocated,MAX ACW,2023-06-16,,99.2,3009,0,CELLULAR,V1.8.48-A,Normal operation,Normal operation,t,f,f,Responsive,GOOD,N/A,53.090573,-0.817032,2023-11-06,23:59:30,2023-11-06,21:30:56,2023-11-06,21:30:56
2023-11-07,350612075416949,50dbfb9c-f32c-4f8a-acb0-4d6bc9f05c78,PH901,DOOSAN DX225,DOOSAN,,EXCAVATOR,British Sugar,Wissington,Europe/London,unallocated,TELTONIKA,2023-06-16,,N/A,0,26236,FMT100,03.27.13.Rev.03,GCF355_202208120816.cfg,,f,f,t,Responsive,GOOD,Good,53.090573,-0.817032,2023-11-06,23:59:30,2023-11-06,21:30:56,2023-11-06,23:59:30
2023-11-07,350612075554210,54aeb113-abe3-4fff-94a4-c4748644abd4,PH691,DOOSAN DX225,DOOSAN,,EXCAVATOR,British Sugar,Wissington,Europe/London,unallocated,TELTONIKA,2023-06-17,,N/A,0,25866,FMT100,03.27.13.Rev.03,GCF355_202208120816.cfg,,f,f,t,Responsive,GOOD,Good,52.255835,0.724265,2023-11-06,23:59:36,2023-11-06,15:18:56,2023-11-06,23:59:36
2023-11-07,868963040276065,54aeb113-abe3-4fff-94a4-c4748644abd4,PH691,DOOSAN DX225,DOOSAN,,EXCAVATOR,British Sugar,Wissington,Europe/London,unallocated,MAX ACW,2023-06-17,,99.2,2995,0,CELLULAR,V1.8.48-A,Normal operation,Normal operation,t,f,f,Responsive,GOOD,N/A,52.255835,0.724265,2023-11-06,23:59:36,2023-11-06,15:18:56,2023-11-06,15:18:56
2023-11-07,350612075416758,598ecadc-49d6-4515-8c09-1df80ffff219,PH777,DOOSAN DA30,DOOSAN,,DUMP_TRUCK,British Sugar,Wissington,Europe/London,unallocated,TELTONIKA,2023-06-19,,N/A,0,28323,FMT100,03.27.13.Rev.03,GCF355_202208120816.cfg,,t,f,t,Responsive,GOOD,Good,53.08973,-0.813102,2023-11-06,23:59:51,2023-11-06,23:57:51,2023-11-06,23:59:51
2023-11-07,350612075559482,5e49e97a-9b8b-4b86-9115-910b2ecc9641,PH808,DOOSAN DA30,DOOSAN,,DUMP_TRUCK,British Sugar,Wissington,Europe/London,unallocated,TELTONIKA,2023-06-14,,N/A,0,26051,FMT100,03.27.13.Rev.03,GCF355_202208120816.cfg,,t,f,t,Responsive,GOOD,Good,53.089692,-0.815132,2023-11-06,23:59:57,2023-11-06,23:59:27,2023-11-06,23:59:57
2023-11-07,357544370207207,5ef5b4af-2a6e-40ac-846b-2054ecf04026,PH758,VOLVO L70H LOADING SHOVEL,VOLVO,,WHEELED_LOADER,British Sugar,Wissington,Europe/London,unallocated,TELTONIKA,2023-06-13,,N/A,0,26055,FMT100,03.27.13.Rev.03,FMT100_STDCFG_20042023_v1.3.cfg,,t,f,t,Responsive,GOOD,Good,52.549762,0.451017,2023-11-06,23:59:48,2023-11-06,23:53:17,2023-11-06,23:59:48
2023-11-07,350612075344752,611fd050-f1d7-45a6-a676-c99859a05f75,PH412,HYUNDAI HX480,HYUNDAI,,EXCAVATOR,British Sugar,Wissington,Europe/London,unallocated,TELTONIKA,2023-06-17,,N/A,0,14056,FMT100,03.27.13.Rev.03,GCF355_202208120816.cfg,,f,f,t,Responsive,GOOD,Good,53.08932,-0.817643,2023-11-06,23:59:56,2023-11-06,23:24:41,2023-11-06,23:59:56
2023-11-07,862315066520098,611fd050-f1d7-45a6-a676-c99859a05f75,PH412,HYUNDAI HX480,HYUNDAI,,EXCAVATOR,British Sugar,Wissington,Europe/London,unallocated,MAX ACW,2023-06-17,,99.2,3010,0,CELLULAR,V1.8.48-A,Normal operation,Normal operation,t,f,f,Responsive,GOOD,N/A,53.08932,-0.817643,2023-11-06,23:59:56,2023-11-06,23:24:41,2023-11-06,23:24:41
2023-11-07,350424060065768,63152992-9a20-4968-bf82-01eb06998536,PH817,JOHN DEERE 6195M TRACTOR,JOHN_DEERE,,TRACTOR,British Sugar,Wissington,Europe/London,unallocated,TELTONIKA,2023-06-13,,N/A,0,28323,FMT100,03.27.13.Rev.03,FMT100_STDCFG_05042023_v1.2.cfg,,t,f,t,Responsive,GOOD,Good,52.255733,0.727303,2023-11-06,23:59:53,2023-11-06,23:53:23,2023-11-06,23:59:53
2023-11-07,350612075421790,696380c8-9bd7-44a4-8c3b-1f3af603feaa,PH781,DOOSAN DA30,DOOSAN,,DUMP_TRUCK,British Sugar,Wissington,Europe/London,unallocated,TELTONIKA,2023-06-15,,N/A,0,28707,FMT100,03.27.13.Rev.03,GCF355_202208120816.cfg,,t,f,t,Responsive,GOOD,Low,52.576492,1.519885,2023-11-06,23:59:49,2023-11-06,23:51:58,2023-11-06,23:59:49
2023-11-07,350612075568640,6bdf9803-656c-48cf-8250-1c5dc697fbe4,PH743,DOOSAN DA30,DOOSAN,,DUMP_TRUCK,British Sugar,Wissington,Europe/London,unallocated,TELTONIKA,2023-07-07,,N/A,0,24308,FMT100,03.27.13.Rev.03,GCF355_202208120816.cfg,,t,f,t,Responsive,GOOD,Good,51.78629,-0.407908,2023-11-06,23:59:40,2023-11-06,23:59:10,2023-11-06,23:59:40
2023-11-07,350424060067681,6e6d7380-5bb9-44e5-82c8-b3b9867f8d33,PH819,JOHN DEERE 6195M TRACTOR,JOHN_DEERE,,TRACTOR,British Sugar,Wissington,Europe/London,unallocated,TELTONIKA,2023-06-13,,N/A,0,0,FMT100,03.27.13.Rev.03,FMT100_STDCFG_05042023_v1.2.cfg,,t,f,t,Unresponsive,DISCONNECTED,Good,52.258285,0.72752,2023-10-14,07:43:19,2023-10-14,07:38:19,2023-10-14,07:43:19
2023-11-07,350612075413086,8ed65e67-43b8-4b3f-ac6f-8cc17ecc3a30,PH802,CAT 730,CATERPILLAR,,DUMP_TRUCK,British Sugar,Wissington,Europe/London,unallocated,TELTONIKA,2023-07-07,,N/A,0,0,FMT100,03.27.13.Rev.03,GCF355_202208120816.cfg,,t,f,t,Unresponsive,DISCONNECTED,Good,51.89216,-0.529327,2023-10-21,14:00:31,2023-10-21,13:51:30,2023-10-21,14:00:31
2023-11-07,350612075554368,983836d2-6ede-49da-89e4-156db73a0f3c,PH907,CAT D5 LGP,CATERPILLAR,,DOZER,British Sugar,Wissington,Europe/London,unallocated,TELTONIKA,2023-06-17,,N/A,0,13758,FMT100,03.27.13.Rev.03,GCF355_202208120816.cfg,,t,f,t,Responsive,GOOD,Good,53.088677,-0.81411,2023-11-06,23:59:59,2023-11-06,23:50:28,2023-11-06,23:59:59
2023-11-07,357544371060696,9b075fc6-73e5-4f88-9042-3643f3bbb0d4,PH762,VOLVO L70H LOADING SHOVEL,VOLVO,,WHEELED_LOADER,British Sugar,Wissington,Europe/London,unallocated,TELTONIKA,2023-06-13,,N/A,0,26053,FMT100,03.27.13.Rev.03,FMT100_STDCFG_20042023_v1.3.cfg,,t,f,t,Responsive,GOOD,Good,52.560373,0.443177,2023-11-06,23:59:54,2023-11-06,23:53:23,2023-11-06,23:59:54
2023-11-07,350612075332047,a826e6bf-4d42-4c0f-9faf-2c2a7aef7a35,PH569,KOBELCO SK300,KOBELCO,,EXCAVATOR,British Sugar,Wissington,Europe/London,unallocated,TELTONIKA,2023-06-17,,N/A,0,13057,FMT100,03.27.13.Rev.03,GCF355_202208120816.cfg,,f,f,t,Responsive,GOOD,Good,52.55337,0.451077,2023-11-06,23:59:48,2023-11-06,20:57:34,2023-11-06,23:59:48
2023-11-07,868963040396574,a826e6bf-4d42-4c0f-9faf-2c2a7aef7a35,PH569,KOBELCO SK300,KOBELCO,,EXCAVATOR,British Sugar,Wissington,Europe/London,unallocated,MAX ACW,2023-06-17,,98.4,3030,0,CELLULAR,V1.8.48-A,Normal operation,Normal operation,t,f,f,Responsive,GOOD,N/A,52.55337,0.451077,2023-11-06,23:59:48,2023-11-06,20:57:34,2023-11-06,20:57:34
2023-11-07,350612075331940,ca2efce1-0a04-403d-b8f8-f5edd1d74030,PH811,DOOSAN DA30,DOOSAN,,DUMP_TRUCK,British Sugar,Wissington,Europe/London,unallocated,TELTONIKA,2023-06-14,,N/A,0,26164,FMT100,03.27.13.Rev.03,GCF355_202208120816.cfg,,t,f,t,Responsive,GOOD,Low,52.551063,0.445087,2023-11-06,23:59:32,2023-11-06,23:56:32,2023-11-06,23:59:32
2023-11-07,350612075568582,e299cf9a-a72c-4763-bf40-cb117c5099a9,PH696,JCB TM320S,JCB,,TELEHANDLER,British Sugar,Wissington,Europe/London,unallocated,TELTONIKA,2023-06-12,,N/A,0,12854,FMT100,03.27.13.Rev.03,GCF355_202208120816.cfg,,t,f,t,Responsive,GOOD,Good,52.54994,0.449202,2023-11-06,23:59:31,2023-11-06,23:47:29,2023-11-06,23:59:31
2023-11-07,350612075413037,e7c1b956-d5c2-4627-9773-9cc43bd0f4b1,PH785,DOOSAN DA30,DOOSAN,,DUMP_TRUCK,British Sugar,Wissington,Europe/London,unallocated,TELTONIKA,2023-06-14,,N/A,0,25249,FMT100,03.27.13.Rev.03,GCF355_202208120816.cfg,,t,f,t,Responsive,GOOD,Good,52.575513,1.522695,2023-11-06,23:59:45,2023-11-06,23:56:15,2023-11-06,23:59:45
2023-11-07,862315069894607,ec14ff29-cef4-43ae-81bd-37c8796aca80,PH486,HYUNDAI HX480,HYUNDAI,,EXCAVATOR,British Sugar,Wissington,Europe/London,unallocated,MAX ACW,2023-06-16,,99.2,3005,0,CELLULAR,V1.8.48-A,Normal operation,Normal operation,t,f,f,Responsive,GOOD,N/A,51.787045,-0.406208,2023-10-16,12:04:50,2023-11-06,22:28:37,2023-11-06,22:28:37
2023-11-07,350612075425676,ec14ff29-cef4-43ae-81bd-37c8796aca80,PH486,HYUNDAI HX480,HYUNDAI,,EXCAVATOR,British Sugar,Wissington,Europe/London,unallocated,TELTONIKA,2023-06-16,,N/A,0,0,FMT100,03.27.13.Rev.03,GCF355_202208120816.cfg,,f,f,t,Unresponsive,DISCONNECTED,Good,51.787045,-0.406208,2023-10-16,12:04:50,2023-11-06,22:28:37,2023-10-11,14:58:21
2023-11-07,350424060065784,fa31704c-8c99-4d94-9bb9-4843a7f5d2a6,PH818,JOHN DEERE 6195M TRACTOR,JOHN_DEERE,,TRACTOR,British Sugar,Wissington,Europe/London,unallocated,TELTONIKA,2023-06-13,,N/A,0,12421,FMT100,03.27.13.Rev.03,FMT100_STDCFG_05042023_v1.2.cfg,,t,f,t,Responsive,GOOD,Good,52.551698,0.444292,2023-11-06,23:59:45,2023-11-06,23:57:46,2023-11-06,23:59:45
2023-11-07,350612075563765,fb29ecc9-2cd5-4a76-a3f8-13df08ac16b9,PH803,DOOSAN DA30,DOOSAN,,DUMP_TRUCK,British Sugar,Wissington,Europe/London,unallocated,TELTONIKA,2023-06-14,,N/A,0,12758,FMT100,03.27.13.Rev.03,GCF355_202208120816.cfg,,t,f,t,Responsive,GOOD,Good,52.57846,1.521335,2023-11-06,23:59:31,2023-11-06,23:53:31,2023-11-06,23:59:31
2023-11-07,350424060064472,969b1e1d-6f6e-456c-9c8a-c562adfc8fe8,PH367,JOHN DEERE 6150M TRACTOR,JOHN_DEERE,,TRACTOR,British Sugar,Newark,Europe/London,unallocated,TELTONIKA,2023-06-13,,N/A,0,12585,FMT100,03.27.13.Rev.03,FMT100_STDCFG_05042023_v1.2.cfg,,t,f,t,Responsive,GOOD,Good,53.087475,-0.816163,2023-11-06,23:59:41,2023-11-06,23:59:11,2023-11-06,23:59:41
2023-11-07,357073299991121,c969f0a1-2424-4f26-b35d-75004081c0fd,PH469,John Deere 6155M Tractor,JOHN_DEERE,,TRACTOR,British Sugar,Newark,Europe/London,unallocated,TELTONIKA,2023-06-13,,N/A,0,12644,FMT100,03.27.13.Rev.03,FMT100_STDCFG_05042023_v1.2.cfg,,t,f,t,Responsive,GOOD,Good,53.089742,-0.812247,2023-11-06,23:59:51,2023-11-06,23:54:21,2023-11-06,23:59:51
2023-11-07,350424060052139,53c012c1-79d0-44c8-a945-847a4f3d9a5e,PH465,John Deere 6155M Tractor,JOHN_DEERE,,TRACTOR,British Sugar,Cantley Norwich,Europe/London,unallocated,TELTONIKA,2023-06-13,,N/A,0,12366,FMT100,03.27.13.Rev.03,FMT100_STDCFG_20042023_v1.3.cfg,,t,f,t,Responsive,GOOD,Good,52.57845,1.521217,2023-11-06,23:59:38,2023-11-06,23:51:07,2023-11-06,23:59:38
2023-11-07,357544370703551,18ec63c9-767f-47ab-b123-af5b6bb435a2,40152,KUBOTA  KX027-4 GL HI2  2023B,KUBOTA,KX027-4 GL HI2,EXCAVATOR,BRUYNEN BOUWPROJECTEN NV,default,Europe/Brussels,unallocated,TELTONIKA,2023-08-07,,N/A,0,12986,FMT100,03.25.18.Rev.08,FMT100_STDCFG_20042023_v1.3.cfg,,t,f,t,Responsive,GOOD,Good,51.32227,4.842785,2023-11-06,23:59:46,2023-11-06,23:54:46,2023-11-06,23:59:46
2023-11-07,350612075410942,8d6f6049-bd68-409f-b590-b4ca41c8a744,40364,HITACHI  ZX135US-7-2P  2023A,HITACHI,ZX135US-7-2P,EXCAVATOR,STG BVBA,default,Europe/Brussels,unallocated,TELTONIKA,2023-10-20,,N/A,0,0,FMT100,,GCF355_202208120816.cfg,,t,f,t,Unresponsive,DISCONNECTED,Unknown,,,,,,,,
2023-11-07,357073299966768,2590e371-e0bf-4c1a-bf36-48aaa7afa201,36441,HITACHI  ZX85USBLCN-6-2P-BL  2022A,HITACHI,ZX85USBLCN-6-2P-BL,EXCAVATOR,LAUROLY CVA,default,Europe/Brussels,unallocated,TELTONIKA,2022-07-08,,N/A,0,25570,FMT100,03.27.13.Rev.03,FMT100_STDCFG_05042023_v1.2.cfg,,t,f,t,Responsive,GOOD,Low,51.072498,4.478257,2023-11-06,23:59:37,2023-11-06,23:51:06,2023-11-06,23:59:37
2023-11-07,350424060054135,0bbb1d60-f4f5-4b0a-8965-e5aaaba57c0c,38077,KUBOTA  U10-5 VHG  2022A,KUBOTA,U10-5 VHG,EXCAVATOR,VERBEKE GROND- EN AFBRAAKWERKEN NV,default,Europe/Brussels,unallocated,TELTONIKA,2023-02-11,,N/A,0,11667,FMT100,03.27.13.Rev.03,FMT100_STDCFG_20042023_v1.3.cfg,,t,f,t,Responsive,GOOD,Good,50.848205,2.744702,2023-11-06,23:59:50,2023-11-06,23:59:20,2023-11-06,23:59:50
2023-11-07,352625696836061,5294d875-70a1-43b1-879d-cf39727c14ba,39830,HITACHI  ZX180LCN-7-2P  2022B,HITACHI,ZX180LCN-7-2P,EXCAVATOR,VERBEKE GROND- EN AFBRAAKWERKEN NV,default,Europe/Brussels,unallocated,TELTONIKA,2023-04-14,,N/A,3915,25436,FMT100,03.27.13.Rev.03,20210126122900_always_on_calibrate_once.cfg,,t,f,t,Responsive,GOOD,Good,50.857403,2.72772,2023-11-06,23:59:54,2023-11-06,23:47:52,2040-01-05,19:54:43
2023-11-07,350424063053886,b5edede1-9f32-45c4-8c51-fd197d1f6673,38025,KUBOTA  U56-5 KGLS2 (version L)  2022A,KUBOTA,U56-5 KGLS2 (version L),EXCAVATOR,VERBEKE GROND- EN AFBRAAKWERKEN NV,default,Europe/Brussels,unallocated,TELTONIKA,2022-11-09,,N/A,0,12946,FMT100,03.27.13.Rev.03,FMT100_STDCFG_05042023_v1.2.cfg,,t,f,t,Responsive,GOOD,Good,50.848268,2.744788,2023-11-06,23:59:46,2023-11-06,23:52:15,2023-11-06,23:59:46
2023-11-07,357544370706018,eda764ab-c02a-4588-8512-1cde8b6eacfb,41002,KUBOTA  KX042-4 KGLS2  2023A,KUBOTA,KX042-4 KGLS2,EXCAVATOR,VERBEKE GROND- EN AFBRAAKWERKEN NV,default,Europe/Brussels,unallocated,TELTONIKA,2023-07-03,,N/A,4123,12777,FMT100,03.27.13.Rev.443,20210126122900_always_on_calibrate_once.cfg,,t,f,t,Responsive,GOOD,Low,50.84835,2.744735,2023-11-06,23:59:42,2023-11-06,23:59:42,2023-11-06,23:59:42
2023-11-07,350544506425522,3f54b226-9ba5-410c-835a-8e30b79565ab,P2-EC380DL,Pelle 2,VOLVO,EC380EL,EXCAVATOR,Imerys,Ploemeur,Europe/Paris,unallocated,TELTONIKA,2023-03-08,,N/A,0,25908,FMT100,03.27.13.Rev.03,FMT100_STDCFG_05042023_v1.2.cfg,,t,f,t,Responsive,GOOD,Low,47.731373,-3.468078,2023-11-06,23:59:51,2023-11-06,23:58:50,2023-11-06,23:59:51
2023-11-07,4CBC98312285054D,5b53801b-1689-4cc4-a8c0-a156af718845,Pompe 1,Pompe Retour Usine Lanvrian,OTHER,,PUMP,Imerys,Ploemeur,Europe/Paris,unallocated,MAX ALE,2022-04-26,,5.9,2490,0,LORA,V1.10.35-A,Normal operation,Normal operation,t,f,f,Unresponsive,DEAD,N/A,47.723835,-3.472609,2022-05-01,04:54:31,2022-05-03,06:48:22,2022-05-03,06:48:37
2023-11-07,350544506379570,646109f1-e23b-4931-8d17-1edbfc9003c4,C1-CAT962-559,Chargeuse 1 Sable,CATERPILLAR,CAT962,WHEELED_LOADER,Imerys,Ploemeur,Europe/Paris,unallocated,TELTONIKA,2023-03-08,,N/A,0,12726,FMT100,03.27.13.Rev.03,FMT100_STDCFG_05042023_v1.2.cfg,,t,f,t,Responsive,GOOD,Good,47.731047,-3.458643,2023-11-06,23:59:32,2023-11-06,23:54:31,2023-11-06,23:59:32
2023-11-07,357544372700589,6896fcf4-918e-4bec-a5a3-26303347bcae,T7-A30-405,Tombereau 7,VOLVO,A30,DUMP_TRUCK,Imerys,Ploemeur,Europe/Paris,unallocated,TELTONIKA,2021-11-24,,N/A,3949,26087,FMT100,03.27.13.Rev.03,20220601_source_accel.cfg,,t,f,t,Responsive,GOOD,Low,47.709387,-3.455697,2023-11-06,23:59:34,2023-11-06,23:49:03,2023-11-06,23:59:34
2023-11-07,357544372700811,9de3a578-62ba-404e-915e-d32a0e121616,T6-A30-376,Tombereau 6,VOLVO,A30,DUMP_TRUCK,Imerys,Ploemeur,Europe/Paris,unallocated,TELTONIKA,2021-11-24,,N/A,3612,0,FMT100,03.27.13.Rev.03,20220601_source_accel.cfg,,t,f,t,Unresponsive,DISCONNECTED,Good,47.724652,-3.420635,2023-03-22,09:08:38,2023-03-22,09:02:54,2023-03-22,09:08:38
2023-11-07,350544506421141,af6165a1-b29f-4ddb-a004-316b649e5151,C2-Cat962-563,Chargeuse 2 Carrière,CATERPILLAR,CAT962,WHEELED_LOADER,Imerys,Ploemeur,Europe/Paris,unallocated,TELTONIKA,2023-03-08,,N/A,0,12632,FMT100,03.27.13.Rev.03,FMT100_STDCFG_05042023_v1.2.cfg,,t,f,t,Responsive,GOOD,Good,47.732008,-3.459707,2023-11-06,23:59:54,2023-11-06,23:52:52,2023-11-06,23:59:54
2023-11-07,350544506425589,b8a9bc7c-fc46-4c3a-b24e-4e40004e4490,C7 - L150H,Chargeuse 7 - Kerbrient,VOLVO,L150H,WHEELED_LOADER,Imerys,Ploemeur,Europe/Paris,unallocated,TELTONIKA,2023-03-08,,N/A,0,12882,FMT100,03.27.13.Rev.03,FMT100_STDCFG_05042023_v1.2.cfg,,t,f,t,Responsive,GOOD,Good,47.727043,-3.41733,2023-11-06,23:59:40,2023-11-06,23:54:10,2023-11-06,23:59:40
2023-11-07,350544506422438,c279b905-8384-446f-b490-c808070887aa,P5-EC380DL (neuve),Pelle 5,VOLVO,EC380DL,EXCAVATOR,Imerys,Ploemeur,Europe/Paris,unallocated,TELTONIKA,2023-03-08,,N/A,0,0,FMT100,03.27.13.Rev.03,FMT100_STDCFG_20042023_v1.3.cfg,,t,f,t,Responsive,DISCONNECTED,Low,47.709408,-3.45583,2023-11-06,17:00:07,2023-11-06,16:51:06,2023-11-06,17:00:07
2023-11-07,350544506379547,d26a33d0-5691-4eb7-91f6-7c4d74057c2e,Tombereau 8 - TA230,Tombereau 8 - TA230,LIEBHERR,TA230,DUMP_TRUCK,Imerys,Ploemeur,Europe/Paris,unallocated,TELTONIKA,2023-03-08,,N/A,0,23639,FMT100,03.27.13.Rev.03,FMT100_STDCFG_05042023_v1.2.cfg,,t,f,t,Responsive,GOOD,Good,47.731942,-3.459663,2023-11-06,23:59:39,2023-11-06,23:56:38,2023-11-06,23:59:39
2023-11-07,354017111286353,fc59785a-5759-49b2-a40e-e2a548a3126b,T1 - A30G2 - 340467,Tombereau 1,VOLVO,A30G,DUMP_TRUCK,Imerys,Ploemeur,Europe/Paris,unallocated,TELTONIKA,2021-04-02,,N/A,3506,0,FMT100,03.27.13.Rev.03,20220601_source_accel.cfg,,t,f,t,Unresponsive,DISCONNECTED,Low,47.726565,-3.472188,2023-06-22,15:00:14,2023-06-22,14:52:43,2023-06-22,15:00:14
2023-11-07,868963040261471,1d493f8d-bc94-4846-9d0b-6f16e6a18bf6,E-215P,EXC 215,OTHER,SY 215,EXCAVATOR,Imerys,RANONG,Asia/Bangkok,unallocated,MAX ACW,2023-08-31,,99.2,3093,0,CELLULAR,V1.8.48-A,Normal operation,Normal operation,t,f,t,Responsive,GOOD,N/A,9.945255,98.684349,2023-11-06,12:01:18,2023-11-06,22:32:54,2023-11-06,22:32:54
2023-11-07,862315066434274,21488866-cd0a-45fb-ace6-0982b8dc8c56,B 004,Bulldozer D6,CATERPILLAR,D6 XML,DOZER,Imerys,RANONG,Asia/Bangkok,unallocated,MAX ACW,2023-08-31,,98.4,3070,0,CELLULAR,V1.8.48-A,Normal operation,Normal operation,t,f,t,Responsive,GOOD,N/A,9.944963,98.684464,2023-11-06,19:25:41,2023-11-06,19:32:22,2023-11-06,19:32:22
